name	team	birthday	age	club_name	club_country_code	caps	height	weight	position	matches	minutes	goals	assists	pa	pc	pc_perc	on_target	off_target	blocked	against_woodwork	fouls	suffered	yellow	red	longer_club_name	lat	lng	uefa_club_name	uefa_11_12	uefa_12_13	uefa_13_14	uefa_14_15	uefa_15_16	uefa_pts
Ahmet Çalık	Turkey	26/02/1994	22	Gençlerbirliği	TUR	4	184	77	Defender	0	None	None	None	None	None	None	0	0	0	0	None	None	None	None	Gençlerbirliği SK	40.9983386	29.1886745	None	None	None	None	None	None	None
James McClean	Republic of Ireland	22/04/1989	27	West Brom	ENG	40	180	70	Midfield	4	None	None	None	None	None	None	1	3	0	0	2	6	0	0	West Bromwich Albion FC	52.5120994	-1.9796204759995817	None	None	None	None	None	None	None
Nico Elvedi	Switzerland	30/09/1996	19	Mönchengladbach	GER	1	188	83	Defender	0	None	None	None	None	None	None	0	0	0	0	None	None	None	None	VfL Borussia Mönchengladbach	51.185389219000456	6.4428041	VfL Borussia Mönchengladbach	3.050	12.585	2.942	12.171	12.171	12.171
Albin Ekdal	Sweden	28/07/1989	26	Hamburg	GER	24	186	75	Midfield	3	None	None	None	None	None	None	1	1	0	0	3	5	1	0	Hamburger SV	53.5884432	9.9044926	None	None	None	None	None	None	None
Hugo Lloris	France	26/12/1986	29	Tottenham	ENG	78	188	73	Goalkeeper	4	None	None	None	None	None	None	0	0	0	0	None	None	None	None	Tottenham Hotspur FC	51.603726097000504	-0.06783299999999999	Tottenham Hotspur FC	10.050	19.285	18.357	11.714	11.714	11.714
Ryan Bertrand	England	05/08/1989	26	Southampton	ENG	9	179	85	Defender	1	None	None	None	None	None	None	0	0	0	0	2	0	1	0	Southampton FC	50.909970039000484	-1.4042779489995496	Southampton FC	3.050	3.285	3.357	2.714	2.714	2.714
Daniel Pudil	Czech Republic	27/09/1985	30	Sheff. Wednesday	ENG	33	185	81	Midfield	1	None	None	None	None	None	None	0	0	0	0	2	1	0	0	Sheffield Wednesday FC	53.4158749	-1.5077223	None	None	None	None	None	None	None
Antoine Griezmann	France	21/03/1991	25	Atlético	ESP	30	176	67	Forward	4	255	3	0	None	None	None	7	2	4	1	2	2	0	0	Club Atlético de Madrid	40.4206094	-3.721263	Club Atlético de Madrid	34.171	13.542	37.600	26.042	26.042	26.042
Andrej Kramarić	Croatia	19/06/1991	25	Hoffenheim	GER	13	177	70	Forward	3	None	None	None	None	None	None	0	0	0	0	1	1	0	0	TSG 1899 Hoffenheim	49.27284710000001	8.841700090000415	None	None	None	None	None	None	None
Wayne Hennessey	Wales	24/01/1987	29	Crystal Palace	ENG	59	198	90	Goalkeeper	3	None	None	None	None	None	None	0	0	0	0	None	None	None	None	Crystal Palace FC	51.4003895	-0.07853809199957595	None	None	None	None	None	None	None
Gökhan Gönül	Turkey	04/01/1985	31	Fenerbahçe	TUR	60	174	73	Defender	3	None	None	None	None	None	None	0	0	0	0	None	None	None	None	Fenerbahçe SK	40.97428620000001	29.0430833	Fenerbahçe SK	1.020	24.040	1.340	1.200	1.200	1.200
Elseid Hysaj	Albania	20/02/1994	22	Napoli	ITA	22	182	70	Defender	3	None	None	None	None	None	None	0	0	1	0	1	5	1	0	SSC Napoli	40.85405189999999	14.2681244	SSC Napoli	21.271	8.883	18.833	25.800	25.800	25.800
Marc Bartra	Spain	15/01/1991	25	Barcelona	ESP	9	183	74	Defender	0	None	None	None	None	None	None	0	0	0	0	None	None	None	None	FC Barcelona	41.3813544	2.1203177860004416	FC Barcelona	34.171	27.542	28.600	38.042	38.042	38.042
Darren Randolph	Republic of Ireland	12/05/1987	29	West Ham	ENG	11	188	98	Goalkeeper	4	None	None	None	None	None	None	0	0	0	0	None	None	None	None	West Ham United FC	51.57045970000001	0.14751	West Ham United FC	3.050	3.285	3.357	2.714	2.714	2.714
Ante Ćorić	Croatia	14/04/1997	19	Dinamo Zagreb	CRO	2	172	78	Midfield	0	None	None	None	None	None	None	0	0	0	0	None	None	None	None	GNK Dinamo Zagreb	45.82139720800046	16.047697900000458	GNK Dinamo Zagreb	4.750	5.875	2.875	5.375	5.375	5.375
Álvaro Morata	Spain	23/10/1992	23	Juventus	ITA	12	189	85	Forward	4	289	3	0	None	None	None	7	4	2	0	12	4	0	0	Torino Juventus	45.1089928	7.638763099999998	Juventus	2.271	25.883	25.833	32.800	32.800	32.800
Jan Vertonghen	Belgium	24/04/1987	29	Tottenham	ENG	80	189	79	Defender	4	None	None	None	None	None	None	0	1	1	0	0	2	1	0	Tottenham Hotspur FC	51.603726097000504	-0.06783299999999999	Tottenham Hotspur FC	10.050	19.285	18.357	11.714	11.714	11.714
Roman Zozulya	Ukraine	17/11/1989	26	Dnipro	UKR	29	176	72	Forward	3	None	None	None	None	None	None	2	1	1	0	5	1	0	0	FC Dnipro Dnipropetrovsk	48.464717	35.13318629400044	FC Dnipro Dnipropetrovsk	3.050	12.900	11.566	21.000	21.000	21.000
Andi Lila	Albania	12/02/1986	30	Giannina	GRE	59	184	79	Defender	2	None	None	None	None	None	None	0	1	0	0	3	2	0	0	PAS Giannina FC	39.7706318	20.850828180000462	None	None	None	None	None	None	None
Ákos Elek	Hungary	21/07/1988	27	Diósgyőr	HUN	38	193	91	Midfield	2	None	None	None	None	None	None	2	1	1	1	2	1	1	0	Diósgyőri VTK	48.10002129999999	20.6899256	Diósgyőri VTK	0.450	0.600	0.175	1.425	1.425	1.425
Haukur Heidar Hauksson	Iceland	01/09/1991	24	AIK	SWE	7	187	79	Defender	0	None	None	None	None	None	None	0	0	0	0	None	None	None	None	AIK Solna	59.36887909999999	18.0084334	AIK Solna	0.580	4.025	0.640	1.780	1.780	1.780
Stuart Dallas	Northern Ireland	19/04/1991	25	Leeds	ENG	16	186	81	Midfield	4	None	None	None	None	None	None	3	0	0	0	6	2	2	0	Leeds United FC	53.8007554	-1.5478467089996002	None	None	None	None	None	None	None
Jordan Lukaku	Belgium	25/07/1994	21	Oostende	BEL	4	186	83	Defender	0	None	None	None	None	None	None	0	0	0	0	None	None	None	None	KV Oostende	51.216386968000506	2.928656	None	None	None	None	None	None	None
Artem Fedetskiy	Ukraine	26/04/1985	31	Dnipro	UKR	52	183	76	Defender	3	None	None	None	None	None	None	0	0	0	0	5	4	0	0	FC Dnipro Dnipropetrovsk	48.464717	35.13318629400044	FC Dnipro Dnipropetrovsk	3.050	12.900	11.566	21.000	21.000	21.000
György Garics	Austria	08/03/1984	32	Darmstadt	GER	41	183	76	Midfield	0	None	None	None	None	None	None	0	0	0	0	None	None	None	None	SV Darmstadt 98	49.8728253	8.6511929	None	None	None	None	None	None	None
Alexandru Măţel	Romania	17/10/1989	26	Dinamo Zagreb	CRO	17	177	72	Defender	1	None	None	None	None	None	None	0	1	0	0	1	2	1	0	GNK Dinamo Zagreb	45.82139720800046	16.047697900000458	GNK Dinamo Zagreb	4.750	5.875	2.875	5.375	5.375	5.375
Iker Casillas	Spain	20/05/1981	35	Porto	POR	167	185	84	Goalkeeper	0	None	None	None	None	None	None	0	0	0	0	None	None	None	None	FC Porto	41.159082	-8.608525658999554	FC Porto	12.366	22.350	17.983	26.816	26.816	26.816
Michael McGovern	Northern Ireland	12/07/1984	31	Hamilton	SCO	14	191	89	Goalkeeper	4	None	None	None	None	None	None	0	0	0	0	None	None	None	None	Hamilton Academical FC	55.77763299999999	-4.033327152999561	None	None	None	None	None	None	None
Arnor Ingvi Traustason	Iceland	30/04/1993	23	Norrköping	SWE	7	183	74	Defender	2	11	1	0	None	None	None	1	0	0	0	None	None	None	None	IFK Norrköping	58.58882975400047	16.192421	None	None	None	None	None	None	None
Jérôme Boateng	Germany	03/09/1988	27	Bayern	GER	62	192	90	Defender	4	328	1	0	None	None	None	1	0	1	0	2	2	1	0	FC Bayern München	48.1326687	11.499996453000449	FC Bayern München	33.050	36.585	29.942	31.171	31.171	31.171
Denis Alibec	Romania	05/01/1991	25	Astra	ROU	6	187	77	Forward	2	None	None	None	None	None	None	1	1	1	0	4	0	0	0	FC Astra Giurgiu	45.63917800000001	25.6269792	FC Astra Giurgiu	0.866	1.360	2.875	4.025	4.025	4.025
Nicolae Stanciu	Romania	07/05/1993	23	Steaua	ROU	7	170	69	Midfield	2	None	None	None	None	None	None	0	4	1	0	2	1	0	0	FC Steaua Bucureşti	44.42120380000001	24.3843233	FC Steaua Bucureşti	6.866	13.360	8.375	6.025	6.025	6.025
Alfred Finnbogason	Iceland	01/02/1989	27	Augsburg	GER	36	184	78	Forward	2	None	None	None	None	None	None	1	0	0	0	3	3	2	0	FC Augsburg	48.3705449	10.883326175000434	FC Augsburg	3.050	3.585	2.942	3.171	3.171	3.171
Ögmundur Kristinsson	Iceland	19/06/1989	27	Hammarby	SWE	11	192	89	Goalkeeper	0	None	None	None	None	None	None	0	0	0	0	None	None	None	None	Hammarby IF	60.545951	16.5699828	None	None	None	None	None	None	None
Tomáš Hubočan	Slovakia	17/09/1985	30	Dinamo Moskva	RUS	46	184	70	Defender	2	None	None	None	None	None	None	0	0	0	0	2	0	0	0	FC Dinamo Moskva	55.7902895900005	37.558184	FC Dinamo Moskva	1.950	3.450	2.083	17.933	17.933	17.933
Richard Keogh	Republic of Ireland	11/08/1986	29	Derby	ENG	12	188	87	Defender	2	None	None	None	None	None	None	0	0	0	0	1	4	0	0	Derby County FC	52.92276604800048	-1.4746186	None	None	None	None	None	None	None
Rui Patrício	Portugal	15/02/1988	28	Sporting CP	POR	47	190	84	Goalkeeper	4	None	None	None	None	None	None	0	0	0	0	None	None	None	None	Sporting Clube de Portugal	38.76196914700046	-9.162147531999608	Sporting Clube de Portugal	22.366	6.350	1.983	11.816	11.816	11.816
Neil Taylor	Wales	07/02/1989	27	Swansea	ENG	31	175	64	Defender	4	360	1	0	None	None	None	2	1	1	0	6	2	1	0	Swansea City AFC	51.62144	-3.9432271479995507	Swansea City AFC	3.050	3.285	10.357	2.714	2.714	2.714
Gareth McAuley	Northern Ireland	05/12/1979	36	West Brom	ENG	64	195	90	Defender	4	354	1	0	None	None	None	2	0	1	0	4	1	0	0	West Bromwich Albion FC	52.5120994	-1.9796204759995817	None	None	None	None	None	None	None
Migjen Basha	Albania	05/01/1987	29	Como	ITA	19	180	72	Midfield	1	None	None	None	None	None	None	1	1	0	0	2	1	1	0	Calcio Como	45.8131012	9.0721636	None	None	None	None	None	None	None
Nikola Kalinić	Croatia	05/01/1988	28	Fiorentina	ITA	30	187	80	Forward	2	122	1	1	None	None	None	2	1	0	0	3	2	0	0	ACF Fiorentina	42.96402994300047	10.536040042000423	ACF Fiorentina	2.271	2.883	17.833	23.800	23.800	23.800
Toni Kroos	Germany	04/01/1990	26	Real Madrid	ESP	68	182	78	Midfield	4	None	None	None	None	None	None	3	5	4	1	4	5	0	0	Real Madrid CF	40.42492708000049	-3.678367150999577	Real Madrid CF	36.171	29.542	39.600	33.042	33.042	33.042
Piotr Zieliński	Poland	20/05/1994	22	Empoli	ITA	16	177	64	Midfield	1	None	None	None	None	None	None	0	0	0	0	None	None	None	None	Empoli FC	44.1325193	12.225985209000442	None	None	None	None	None	None	None
Amir Abrashi	Albania	27/03/1990	26	Freiburg	GER	21	172	71	Midfield	3	None	None	None	None	None	None	1	0	2	0	4	9	1	0	SC Freiburg	47.9990077	7.85221964900046	SC Freiburg	3.050	3.585	7.942	3.171	3.171	3.171
Orges Shehi	Albania	25/09/1977	38	Skënderbeu	ALB	7	182	78	Goalkeeper	0	None	None	None	None	None	None	0	0	0	0	None	None	None	None	KF Skënderbeu	42.3764079	20.4385842	KF Skënderbeu	1.175	1.150	1.900	1.175	1.175	1.175
Luka Modrić	Croatia	09/09/1985	30	Real Madrid	ESP	91	174	65	Midfield	3	272	1	0	None	None	None	1	1	0	0	1	5	0	0	Real Madrid CF	40.42492708000049	-3.678367150999577	Real Madrid CF	36.171	29.542	39.600	33.042	33.042	33.042
Ladislav Krejčí	Czech Republic	05/07/1992	23	Sparta Praha	CZE	26	180	67	Midfield	3	None	None	None	None	None	None	1	0	0	0	4	2	0	0	AC Sparta Praha	50.09863665500046	14.413708396000459	AC Sparta Praha	2.550	9.700	2.100	7.775	7.775	7.775
Martin Harnik	Austria	10/06/1987	29	Stuttgart	GER	60	185	75	Midfield	2	None	None	None	None	None	None	0	2	0	0	4	4	1	0	VfB Stuttgart	48.7932328	9.1829321	VfB Stuttgart	3.050	12.585	4.442	3.171	3.171	3.171
Marcel Sabitzer	Austria	17/03/1994	22	Leipzig	GER	20	177	74	Midfield	3	None	None	None	None	None	None	0	2	0	0	None	None	None	None	RB Leipzig	51.3396955	12.3730747	None	None	None	None	None	None	None
Marwin Hitz	Switzerland	18/09/1987	28	Augsburg	GER	2	193	86	Goalkeeper	0	None	None	None	None	None	None	0	0	0	0	None	None	None	None	FC Augsburg	48.3705449	10.883326175000434	FC Augsburg	3.050	3.585	2.942	3.171	3.171	3.171
Danny Rose	England	02/07/1990	25	Tottenham	ENG	6	173	72	Defender	3	None	None	None	None	None	None	0	1	0	0	2	4	0	0	Tottenham Hotspur FC	51.603726097000504	-0.06783299999999999	Tottenham Hotspur FC	10.050	19.285	18.357	11.714	11.714	11.714
Robbie Brady	Republic of Ireland	14/01/1992	24	Norwich	ENG	25	175	69	Midfield	4	360	2	0	None	None	None	2	2	3	0	3	6	0	0	Norwich City FC	52.62272549999999	1.2983397260004494	None	None	None	None	None	None	None
Ricardo Quaresma	Portugal	26/09/1983	32	Beşiktaş	TUR	52	175	67	Forward	4	147	1	1	None	None	None	2	2	0	0	2	6	1	0	Beşiktaş JK	41.04540851900049	29.005740195000442	Beşiktaş JK	11.020	2.040	1.340	12.200	12.200	12.200
Ján Ďurica	Slovakia	10/12/1981	34	Lokomotiv Moskva	RUS	83	188	86	Defender	4	None	None	None	None	None	None	0	2	0	0	4	3	1	0	FC Lokomotiv Moskva	55.800076	37.739931	FC Lokomotiv Moskva	11.950	1.950	2.083	3.433	3.433	3.433
Yohan Cabaye	France	14/01/1986	30	Crystal Palace	ENG	47	174	71	Midfield	1	None	None	None	None	None	None	0	0	1	0	2	0	0	0	Crystal Palace FC	51.4003895	-0.07853809199957595	None	None	None	None	None	None	None
Mousa Dembélé	Belgium	16/07/1987	28	Tottenham	ENG	65	185	82	Midfield	1	None	None	None	None	None	None	0	0	0	0	3	1	0	0	Tottenham Hotspur FC	51.603726097000504	-0.06783299999999999	Tottenham Hotspur FC	10.050	19.285	18.357	11.714	11.714	11.714
Jason Denayer	Belgium	28/06/1995	20	Galatasaray	TUR	7	184	70	Defender	0	None	None	None	None	None	None	0	0	0	0	None	None	None	None	Galatasaray AŞ	41.103203	28.991243	Galatasaray AŞ	1.020	24.040	16.340	6.200	6.200	6.200
Patrik Hrošovský	Slovakia	22/04/1992	24	Plzeň	CZE	13	172	68	Midfield	2	None	None	None	None	None	None	0	0	0	0	3	0	1	0	FC Viktoria Plzeň	49.750358561000496	13.3842745	FC Viktoria Plzeň	10.050	15.700	12.600	1.775	1.775	1.775
Michy Batshuayi	Belgium	02/10/1993	22	Marseille	FRA	5	185	78	Forward	1	14	1	0	None	None	None	2	0	0	0	1	0	1	0	Olympique de Marseille	43.29661725200049	5.381065934000446	Olympique de Marseille	21.100	6.350	5.700	2.183	2.183	2.183
Ozan Tufan	Turkey	23/03/1995	21	Fenerbahçe	TUR	27	179	70	Midfield	3	270	1	0	None	None	None	2	1	0	0	4	5	1	0	Fenerbahçe SK	40.97428620000001	29.0430833	Fenerbahçe SK	1.020	24.040	1.340	1.200	1.200	1.200
Roland Juhász	Hungary	01/07/1983	32	Videoton	HUN	92	194	96	Defender	3	None	None	None	None	None	None	0	2	0	0	4	2	1	0	Videoton FC	47.1739681840005	18.413749941000447	Videoton FC	1.450	4.600	0.425	0.425	0.425	0.425
Mario Gomez	Germany	10/07/1985	30	Beşiktaş	TUR	66	189	93	Forward	3	199	2	0	None	None	None	5	1	2	0	3	1	0	0	Beşiktaş JK	41.04540851900049	29.005740195000442	Beşiktaş JK	11.020	2.040	1.340	12.200	12.200	12.200
Aleksandr Kokorin	Russia	19/03/1991	25	Zenit	RUS	41	181	74	Forward	3	None	None	None	None	None	None	0	1	3	0	2	5	0	0	FC Zenit	60.00394350000001	30.398305957000446	FC Zenit	19.950	14.950	18.083	18.933	18.933	18.933
Nathaniel Clyne	England	05/04/1991	25	Liverpool	ENG	13	175	67	Defender	1	None	None	None	None	None	None	1	0	0	0	None	None	None	None	Liverpool FC	53.41057676100047	-2.9779368059995477	Liverpool FC	3.050	12.285	3.357	12.714	12.714	12.714
Claudiu Keșerü	Romania	02/12/1986	29	Ludogorets	BUL	14	178	71	Forward	1	None	None	None	None	None	None	2	2	0	0	3	2	1	0	PFC Ludogorets Razgrad	43.8149115	27.1378769	PFC Ludogorets Razgrad	0.300	1.150	15.125	7.850	7.850	7.850
Roy Carroll	Northern Ireland	30/09/1977	38	Linfield	NIR	44	188	80	Goalkeeper	0	None	None	None	None	None	None	0	0	0	0	None	None	None	None	Linfield FC	52.57687259999999	-8.3642439	Linfield FC	1.100	1.200	0.675	0.775	0.775	0.775
Ivan Vargić	Croatia	15/03/1987	29	Rijeka	CRO	2	192	90	Goalkeeper	0	None	None	None	None	None	None	0	0	0	0	None	None	None	None	HNK Rijeka	45.3270631	14.447160033000443	HNK Rijeka	0.750	0.875	4.875	6.375	6.375	6.375
João Mário	Portugal	19/01/1993	23	Sporting CP	POR	13	179	73	Midfield	4	None	None	None	None	None	None	0	2	2	0	7	4	0	0	Sporting Clube de Portugal	38.76196914700046	-9.162147531999608	Sporting Clube de Portugal	22.366	6.350	1.983	11.816	11.816	11.816
Dragoş Grigore	Romania	07/09/1986	29	Al-Sailiya	QAT	23	185	76	Defender	3	None	None	None	None	None	None	0	0	0	0	4	4	1	0	Al-Sailiya SC	25.248606294000467	51.3797222	None	None	None	None	None	None	None
Bohdan Butko	Ukraine	13/01/1991	25	Amkar	RUS	18	180	68	Defender	1	None	None	None	None	None	None	0	0	0	0	1	0	0	0	FC Amkar Perm	57.99080582100049	56.24843557200052	None	None	None	None	None	None	None
Sergei Ignashevich	Russia	14/07/1979	36	CSKA Moskva	RUS	119	187	84	Defender	3	None	None	None	None	None	None	1	1	1	0	3	0	0	0	PFC CSKA Moskva	57.44911719900051	37.6173	PFC CSKA Moskva	17.950	3.450	8.083	9.933	9.933	9.933
Shay Given	Republic of Ireland	20/04/1976	40	Stoke	ENG	133	185	84	Goalkeeper	0	None	None	None	None	None	None	0	0	0	0	None	None	None	None	Stoke City FC	53.004145827000514	-2.179404	Stoke City FC	11.050	3.285	3.357	2.714	2.714	2.714
Jamie Ward	Northern Ireland	12/05/1986	30	Nottm Forest	ENG	25	165	68	Midfield	4	None	None	None	None	None	None	2	0	2	0	1	7	1	0	Nottingham Forest FC	53.0756752	0.033259992000409966	None	None	None	None	None	None	None
Róbert Mak	Slovakia	08/03/1991	25	PAOK	GRE	30	179	78	Midfield	3	None	None	None	None	None	None	2	3	0	0	1	1	1	0	PAOK Thessaloniki	40.6400629	22.98016972700043	PAOK FC	11.520	2.380	10.220	6.240	6.240	6.240
Eduardo	Portugal	19/09/1982	33	Dinamo Zagreb	CRO	35	188	89	Goalkeeper	0	None	None	None	None	None	None	0	0	0	0	None	None	None	None	GNK Dinamo Zagreb	45.82139720800046	16.047697900000458	GNK Dinamo Zagreb	4.750	5.875	2.875	5.375	5.375	5.375
Jack Wilshere	England	01/01/1992	24	Arsenal	ENG	33	172	65	Midfield	3	None	None	None	None	None	None	0	1	0	0	1	2	0	0	Arsenal FC	51.5540370060005	-0.105505	Arsenal FC	22.050	21.285	21.357	22.714	22.714	22.714
Gerard Piqué	Spain	02/02/1987	29	Barcelona	ESP	80	193	85	Defender	4	360	1	0	None	None	None	4	2	1	0	1	2	0	0	FC Barcelona	41.3813544	2.1203177860004416	FC Barcelona	34.171	27.542	28.600	38.042	38.042	38.042
Stefan Ilsanker	Austria	18/05/1989	27	Leipzig	GER	17	189	86	Midfield	2	None	None	None	None	None	None	1	0	0	0	2	1	0	0	RB Leipzig	51.3396955	12.3730747	None	None	None	None	None	None	None
Attila Fiola	Hungary	17/02/1990	26	Puskás Akadémia	HUN	16	182	70	Defender	1	None	None	None	None	None	None	1	0	0	0	1	0	0	0	Puskás Akadémia FC	47.42217965800046	18.582925929000453	None	None	None	None	None	None	None
Markus Suttner	Austria	16/04/1987	29	Ingolstadt	GER	16	179	72	Defender	0	None	None	None	None	None	None	0	0	0	0	None	None	None	None	FC Ingolstadt 04	48.76507649300049	11.4257541	None	None	None	None	None	None	None
John Guidetti	Sweden	15/04/1992	24	Celta	ESP	11	185	79	Forward	3	None	None	None	None	None	None	0	1	0	0	1	1	0	0	Celta de Vigo	42.228974	-8.847789959999602	None	None	None	None	None	None	None
David de Gea	Spain	07/11/1990	25	Man. United	ENG	12	192	76	Goalkeeper	4	None	None	None	None	None	None	0	0	0	0	None	None	None	None	Manchester United FC	53.4630484	-2.2951326	Manchester United FC	16.050	21.285	26.357	2.714	2.714	2.714
Dries Mertens	Belgium	06/05/1987	29	Napoli	ITA	48	169	61	Forward	4	None	None	None	None	None	None	4	4	4	0	2	2	0	0	SSC Napoli	40.85405189999999	14.2681244	SSC Napoli	21.271	8.883	18.833	25.800	25.800	25.800
Ricardo Carvalho	Portugal	18/05/1978	38	Monaco	FRA	88	183	78	Defender	3	None	None	None	None	None	None	0	2	0	0	4	2	0	0	AS Monaco FC	43.73741099999999	7.420815999999999	AS Monaco FC	2.100	2.350	1.700	23.183	23.183	23.183
Mattia De Sciglio	Italy	20/10/1992	23	Milan	ITA	23	183	74	Defender	3	None	None	None	None	None	None	0	0	1	0	2	6	1	0	AC Milan	45.4654219	9.189509981000413	AC Milan	22.271	19.883	18.833	3.800	3.800	3.800
Lee Hodson	Northern Ireland	02/10/1991	24	MK Dons	ENG	16	174	71	Defender	0	None	None	None	None	None	None	0	0	0	0	None	None	None	None	Milton Keynes Dons FC	52.009257111000466	-0.7352188199995453	None	None	None	None	None	None	None
Viktor Kovalenko	Ukraine	14/02/1996	20	Shakhtar Donetsk	UKR	6	182	75	Midfield	3	None	None	None	None	None	None	0	2	0	0	2	6	0	0	FC Shakhtar Donetsk	47.971263	37.80285	FC Shakhtar Donetsk	9.550	18.900	12.566	19.000	19.000	19.000
Cyrus Christie	Republic of Ireland	30/09/1992	23	Derby	ENG	5	188	78	Defender	0	None	None	None	None	None	None	0	0	0	0	None	None	None	None	Derby County FC	52.92276604800048	-1.4746186	None	None	None	None	None	None	None
Conor Washington	Northern Ireland	18/05/1992	24	QPR	ENG	7	178	74	Forward	4	None	None	None	None	None	None	0	3	0	0	3	1	0	0	Queens Park Rangers FC	51.51074999999999	-0.230056	None	None	None	None	None	None	None
Marko Arnautović	Austria	19/04/1989	27	Stoke	ENG	54	192	83	Forward	3	None	None	None	None	None	None	2	2	0	0	4	4	0	0	Stoke City FC	53.004145827000514	-2.179404	Stoke City FC	11.050	3.285	3.357	2.714	2.714	2.714
Shane Duffy	Republic of Ireland	01/01/1992	24	Blackburn	ENG	3	193	76	Defender	2	None	None	None	None	None	None	0	3	0	0	3	0	0	1	Blackburn Rovers FC	53.7499996410005	-2.48332719599955	None	None	None	None	None	None	None
Vasili Berezutski	Russia	20/06/1982	34	CSKA Moskva	RUS	98	189	87	Defender	3	225	1	0	None	None	None	1	1	0	0	1	1	0	0	PFC CSKA Moskva	57.44911719900051	37.6173	PFC CSKA Moskva	17.950	3.450	8.083	9.933	9.933	9.933
Joe Ledley	Wales	23/01/1987	29	Crystal Palace	ENG	64	183	73	Midfield	4	None	None	None	None	None	None	0	0	0	0	2	5	0	0	Crystal Palace FC	51.4003895	-0.07853809199957595	None	None	None	None	None	None	None
Stephen Ward	Republic of Ireland	20/08/1985	30	Burnley	ENG	33	184	72	Defender	3	None	None	None	None	None	None	1	1	1	0	1	1	1	0	Burnley FC	53.78874339999999	-2.2328754	None	None	None	None	None	None	None
Şener Özbayraklı	Turkey	23/01/1990	26	Fenerbahçe	TUR	8	171	71	Defender	0	None	None	None	None	None	None	0	0	0	0	None	None	None	None	Fenerbahçe SK	40.97428620000001	29.0430833	Fenerbahçe SK	1.020	24.040	1.340	1.200	1.200	1.200
Semih Kaya	Turkey	24/02/1991	25	Galatasaray	TUR	23	183	66	Defender	0	None	None	None	None	None	None	0	0	0	0	None	None	None	None	Galatasaray AŞ	41.103203	28.991243	Galatasaray AŞ	1.020	24.040	16.340	6.200	6.200	6.200
Andreas Granqvist	Sweden	16/04/1985	31	Krasnodar	RUS	54	192	84	Defender	3	None	None	None	None	None	None	0	0	1	0	6	7	0	0	FC Krasnodar	45.03926740000001	38.97485574200044	FC Krasnodar	1.950	1.950	2.083	6.933	6.933	6.933
Andy King	Wales	29/10/1988	27	Leicester	ENG	34	183	74	Midfield	1	None	None	None	None	None	None	0	0	0	0	1	0	0	0	Leicester City FC	52.63859826400051	-1.131687637999562	None	None	None	None	None	None	None
Lucian Sânmărtean	Romania	13/03/1980	36	Al-Ittihad	KSA	21	175	70	Midfield	1	None	None	None	None	None	None	0	0	1	0	3	2	0	0	Al-Ittihad Club	21.542568660000427	39.2139977	None	None	None	None	None	None	None
Aritz Aduriz	Spain	11/02/1981	35	Athletic	ESP	8	181	75	Forward	3	None	None	None	None	None	None	0	3	1	0	2	1	0	0	Athletic Bilbao	43.268669985000486	-2.9349852	Athletic Club	27.171	7.542	4.600	14.042	14.042	14.042
Fabian Schär	Switzerland	20/12/1991	24	Hoffenheim	GER	23	186	84	Defender	4	390	1	0	None	None	None	3	3	1	0	3	2	2	0	TSG 1899 Hoffenheim	49.27284710000001	8.841700090000415	None	None	None	None	None	None	None
Arlind Ajeti	Albania	25/09/1993	22	Frosinone	ITA	11	185	81	Defender	2	None	None	None	None	None	None	0	0	0	0	1	2	0	0	Frosinone Calcio	41.64001725500049	13.34009916600047	None	None	None	None	None	None	None
Admir Mehmedi	Switzerland	16/03/1991	25	Leverkusen	GER	45	183	81	Forward	4	307	1	0	None	None	None	2	2	2	0	2	5	0	0	Bayer 04 Leverkusen	51.03319008200049	6.984318665000444	Bayer 04 Leverkusen	19.050	12.585	18.942	21.171	21.171	21.171
Giorgio Chiellini	Italy	14/08/1984	31	Juventus	ITA	86	187	86	Defender	3	270	1	0	None	None	None	1	0	0	0	3	9	1	0	Torino Juventus	45.1089928	7.638763099999998	Juventus	2.271	25.883	25.833	32.800	32.800	32.800
Jordi Alba	Spain	21/03/1989	27	Barcelona	ESP	46	170	68	Defender	4	None	None	None	None	None	None	1	0	1	0	2	3	1	0	FC Barcelona	41.3813544	2.1203177860004416	FC Barcelona	34.171	27.542	28.600	38.042	38.042	38.042
Luke McCullough	Northern Ireland	15/02/1994	22	Doncaster	ENG	5	185	81	Defender	0	None	None	None	None	None	None	0	0	0	0	None	None	None	None	Doncaster Rovers FC	53.52326926100051	-1.128462	None	None	None	None	None	None	None
 Olexandr Zinchenko	Ukraine	15/12/1996	19	Ufa	RUS	6	175	61	Midfield	3	None	None	None	None	None	None	1	4	0	0	None	None	None	None	FC Ufa	54.749613541000485	55.98563915000051	None	None	None	None	None	None	None
Vladimír Weiss	Slovakia	30/11/1989	26	Al-Gharafa	QAT	55	173	71	Midfield	4	278	1	1	None	None	None	2	2	0	0	4	3	1	0	Al-Gharafa Sports Club	25.3325814	51.44670929999999	None	None	None	None	None	None	None
Thiago Alcántara	Spain	11/04/1991	25	Bayern	GER	12	172	71	Midfield	2	None	None	None	None	None	None	0	0	0	0	None	None	None	None	FC Bayern München	48.1326687	11.499996453000449	FC Bayern München	33.050	36.585	29.942	31.171	31.171	31.171
Artur Boruc	Poland	20/02/1980	36	Bournemouth	ENG	63	193	88	Goalkeeper	0	None	None	None	None	None	None	0	0	0	0	None	None	None	None	AFC Bournemouth	50.72047697400046	-1.8794987789995616	None	None	None	None	None	None	None
Marouane Fellaini	Belgium	22/11/1987	28	Man. United	ENG	71	194	85	Midfield	2	None	None	None	None	None	None	0	1	0	0	5	1	1	0	Manchester United FC	53.4630484	-2.2951326	Manchester United FC	16.050	21.285	26.357	2.714	2.714	2.714
Steven Davis	Northern Ireland	01/01/1985	31	Southampton	ENG	86	172	72	Midfield	4	None	None	None	None	None	None	1	0	1	0	6	3	1	0	Southampton FC	50.909970039000484	-1.4042779489995496	Southampton FC	3.050	3.285	3.357	2.714	2.714	2.714
Toby Alderweireld	Belgium	02/03/1989	27	Tottenham	ENG	57	186	81	Defender	4	360	1	0	None	None	None	1	3	1	0	1	1	0	0	Tottenham Hotspur FC	51.603726097000504	-0.06783299999999999	Tottenham Hotspur FC	10.050	19.285	18.357	11.714	11.714	11.714
Denys Boyko	Ukraine	29/01/1988	28	Beşiktaş	TUR	4	194	82	Goalkeeper	0	None	None	None	None	None	None	0	0	0	0	None	None	None	None	Beşiktaş JK	41.04540851900049	29.005740195000442	Beşiktaş JK	11.020	2.040	1.340	12.200	12.200	12.200
Sami Khedira	Germany	04/04/1987	29	Juventus	ITA	63	189	90	Midfield	4	None	None	None	None	None	None	4	2	3	0	3	2	1	0	Torino Juventus	45.1089928	7.638763099999998	Juventus	2.271	25.883	25.833	32.800	32.800	32.800
Martin Olsson	Sweden	17/05/1988	28	Norwich	ENG	36	170	81	Defender	3	None	None	None	None	None	None	0	0	1	0	1	3	1	0	Norwich City FC	52.62272549999999	1.2983397260004494	None	None	None	None	None	None	None
Thomas Vermaelen	Belgium	14/11/1985	30	Barcelona	ESP	55	183	80	Defender	4	None	None	None	None	None	None	0	0	0	0	8	5	2	0	FC Barcelona	41.3813544	2.1203177860004416	FC Barcelona	34.171	27.542	28.600	38.042	38.042	38.042
Aaron Hughes	Northern Ireland	08/11/1979	36	Melbourne City	AUS	102	183	78	Defender	3	None	None	None	None	None	None	0	0	0	0	None	None	None	None	Melbourne City FC	-37.813999663999596	144.9642459	None	None	None	None	None	None	None
Cédric	Portugal	31/08/1991	24	Southampton	ENG	11	172	67	Defender	1	None	None	None	None	None	None	0	0	0	0	1	0	0	0	Southampton FC	50.909970039000484	-1.4042779489995496	Southampton FC	3.050	3.285	3.357	2.714	2.714	2.714
Roman Hubník	Czech Republic	06/06/1984	32	Plzeň	CZE	29	191	86	Defender	3	None	None	None	None	None	None	1	0	0	0	1	5	0	0	FC Viktoria Plzeň	49.750358561000496	13.3842745	FC Viktoria Plzeň	10.050	15.700	12.600	1.775	1.775	1.775
Glenn Whelan	Republic of Ireland	13/01/1984	32	Stoke	ENG	72	180	79	Midfield	2	None	None	None	None	None	None	0	0	1	0	1	1	1	0	Stoke City FC	53.004145827000514	-2.179404	Stoke City FC	11.050	3.285	3.357	2.714	2.714	2.714
Arda Turan	Turkey	30/01/1987	29	Barcelona	ESP	94	178	76	Midfield	3	None	None	None	None	None	None	0	3	1	0	1	5	0	0	FC Barcelona	41.3813544	2.1203177860004416	FC Barcelona	34.171	27.542	28.600	38.042	38.042	38.042
Dele Alli	England	11/04/1996	20	Tottenham	ENG	11	188	73	Midfield	4	None	None	None	None	None	None	0	7	5	0	3	6	0	0	Tottenham Hotspur FC	51.603726097000504	-0.06783299999999999	Tottenham Hotspur FC	10.050	19.285	18.357	11.714	11.714	11.714
Kornel Saláta	Slovakia	24/01/1985	31	Slovan Bratislava	SVK	37	191	89	Defender	1	None	None	None	None	None	None	0	0	0	0	None	None	None	None	ŠK Slovan Bratislava	48.1727265	17.141339352000443	ŠK Slovan Bratislava	2.475	0.800	1.325	2.550	2.550	2.550
Eliaquim Mangala	France	13/02/1991	25	Man. City	ENG	7	188	84	Defender	0	None	None	None	None	None	None	0	0	0	0	None	None	None	None	Manchester City FC	53.4807593	-2.272817876999568	Manchester City FC	20.050	10.285	22.357	17.714	17.714	17.714
Niall McGinn	Northern Ireland	20/07/1987	28	Aberdeen	SCO	44	183	70	Forward	3	38	1	0	None	None	None	1	0	0	0	None	None	None	None	Aberdeen FC	57.159806062000484	-2.094278	Aberdeen FC	0.550	0.860	0.650	1.800	1.800	1.800
Héctor Bellerín	Spain	19/03/1995	21	Arsenal	ENG	3	177	74	Defender	0	None	None	None	None	None	None	0	0	0	0	None	None	None	None	Arsenal FC	51.5540370060005	-0.105505	Arsenal FC	22.050	21.285	21.357	22.714	22.714	22.714
Ciaran Clark	Republic of Ireland	26/09/1989	26	Aston Villa	ENG	19	188	76	Defender	2	None	None	None	None	None	None	0	2	0	0	2	3	0	0	Aston Villa FC	52.52564092200049	-1.8397444219995691	None	None	None	None	None	None	None
Kevin De Bruyne	Belgium	28/06/1991	24	Man. City	ENG	43	181	68	Midfield	4	None	None	None	None	None	None	9	5	4	0	5	3	0	0	Manchester City FC	53.4807593	-2.272817876999568	Manchester City FC	20.050	10.285	22.357	17.714	17.714	17.714
Jonny Evans	Northern Ireland	03/01/1988	28	West Brom	ENG	52	188	77	Defender	4	None	None	None	None	None	None	0	0	1	0	5	7	1	0	West Bromwich Albion FC	52.5120994	-1.9796204759995817	None	None	None	None	None	None	None
Bogdan Stancu	Romania	28/06/1987	28	Gençlerbirliği	TUR	44	183	75	Forward	3	264	2	0	None	None	None	4	1	1	0	2	0	0	0	Gençlerbirliği SK	40.9983386	29.1886745	None	None	None	None	None	None	None
Benoît Costil	France	03/07/1987	28	Rennes	FRA	0	188	86	Goalkeeper	0	None	None	None	None	None	None	0	0	0	0	None	None	None	None	Stade Rennais FC	48.11197744700047	-1.6742899889995897	Stade Rennais FC	5.100	2.350	1.700	2.183	2.183	2.183
Patrik Carlgren	Sweden	08/01/1992	24	AIK	SWE	0	188	84	Goalkeeper	0	None	None	None	None	None	None	0	0	0	0	None	None	None	None	AIK Solna	59.36887909999999	18.0084334	AIK Solna	0.580	4.025	0.640	1.780	1.780	1.780
Steve Mandanda	France	28/03/1985	31	Marseille	FRA	22	185	82	Goalkeeper	0	None	None	None	None	None	None	0	0	0	0	None	None	None	None	Olympique de Marseille	43.29661725200049	5.381065934000446	Olympique de Marseille	21.100	6.350	5.700	2.183	2.183	2.183
Matúš Kozáčik	Slovakia	27/12/1983	32	Plzeň	CZE	20	193	88	Goalkeeper	4	None	None	None	None	None	None	0	0	0	0	None	None	None	None	FC Viktoria Plzeň	49.750358561000496	13.3842745	FC Viktoria Plzeň	10.050	15.700	12.600	1.775	1.775	1.775
André-Pierre Gignac	France	05/12/1985	30	Tigres	MEX	29	187	84	Forward	3	None	None	None	None	None	None	2	3	3	1	None	None	None	None	Tigres UANL	25.779912	-100.2818836	None	None	None	None	None	None	None
Elmar Bjarnason	Iceland	04/03/1987	29	AGF	DEN	28	183	78	Defender	3	None	None	None	None	None	None	0	0	0	0	4	1	0	0	AGF Aarhus	56.15302005800049	10.20486000200043	AGF Aarhus	0.620	1.160	0.760	0.580	0.580	0.580
Karol Linetty	Poland	02/02/1995	21	Lech	POL	10	176	74	Midfield	0	None	None	None	None	None	None	0	0	0	0	None	None	None	None	KKS Lech Poznań	52.4031363	16.8659869	KKS Lech Poznań	1.325	1.500	1.625	1.950	1.950	1.950
Zoltán Gera	Hungary	22/04/1979	37	Ferencváros	HUN	90	183	75	Forward	4	270	1	0	None	None	None	2	2	0	0	4	2	1	0	Ferencvárosi TC	47.48583551000047	19.0819885	Ferencvárosi TC	0.950	0.600	0.175	0.925	0.925	0.925
Etrit Berisha	Albania	10/03/1989	27	Lazio	ITA	37	194	92	Goalkeeper	3	None	None	None	None	None	None	0	0	0	0	None	None	None	None	SS Lazio	41.92843716100049	12.4851941	SS Lazio	9.271	20.883	12.833	3.800	3.800	3.800
Roman Shishkin	Russia	27/01/1987	29	Lokomotiv Moskva	RUS	11	176	73	Defender	0	None	None	None	None	None	None	0	0	0	0	None	None	None	None	FC Lokomotiv Moskva	55.800076	37.739931	FC Lokomotiv Moskva	11.950	1.950	2.083	3.433	3.433	3.433
Hannes Halldórsson	Iceland	27/04/1984	32	Bodø/Glimt	NOR	35	193	87	Goalkeeper	4	None	None	None	None	None	None	0	0	0	0	1	3	1	0	FK Bodø/Glimt	67.2803556	14.404916	None	None	None	None	None	None	None
Ivan Perišić	Croatia	02/02/1989	27	Internazionale	ITA	50	187	80	Midfield	4	387	2	1	None	None	None	4	8	4	2	6	2	1	0	FC Internazionale Milano	45.7924983	7.764657419000457	FC Internazionale Milano	20.271	16.883	2.833	15.800	15.800	15.800
Ledian Memushaj	Albania	17/12/1986	29	Pescara	ITA	15	175	71	Midfield	2	None	None	None	None	None	None	2	4	1	1	1	7	1	0	Delfino Pescara 1936	42.4617902	14.1435193	None	None	None	None	None	None	None
Oğuzhan Özyakup	Turkey	23/09/1992	23	Beşiktaş	TUR	23	180	75	Midfield	3	None	None	None	None	None	None	0	0	0	0	1	1	0	0	Beşiktaş JK	41.04540851900049	29.005740195000442	Beşiktaş JK	11.020	2.040	1.340	12.200	12.200	12.200
Tomáš Koubek	Czech Republic	26/08/1992	23	Liberec	CZE	2	198	95	Goalkeeper	0	None	None	None	None	None	None	0	0	0	0	None	None	None	None	FC Slovan Liberec	50.767106337000484	15.05618838400045	FC Slovan Liberec	1.050	3.200	9.600	1.775	1.775	1.775
James Collins	Wales	23/08/1983	32	West Ham	ENG	47	188	83	Defender	0	None	None	None	None	None	None	0	0	0	0	None	None	None	None	West Ham United FC	51.57045970000001	0.14751	West Ham United FC	3.050	3.285	3.357	2.714	2.714	2.714
Eliseu	Portugal	01/10/1983	32	Benfica	POR	16	180	75	Defender	1	None	None	None	None	None	None	0	0	0	0	None	None	None	None	SL Benfica	38.75205652700049	-9.18322816199958	SL Benfica	23.366	28.350	30.983	9.816	9.816	9.816
Marcus Rashford	England	31/10/1997	18	Man. United	ENG	2	180	70	Forward	2	None	None	None	None	None	None	0	0	0	0	1	0	0	0	Manchester United FC	53.4630484	-2.2951326	Manchester United FC	16.050	21.285	26.357	2.714	2.714	2.714
Blaise Matuidi	France	09/04/1987	29	Paris	FRA	47	175	70	Midfield	4	None	None	None	None	None	None	1	1	1	0	3	5	0	0	Paris Saint-Germain	48.853408154000476	2.3337563460004276	Paris Saint-Germain	9.100	27.350	26.700	23.183	23.183	23.183
Kamil Glik	Poland	03/02/1988	28	Torino	ITA	44	190	80	Defender	4	None	None	None	None	None	None	0	1	1	0	3	2	0	0	Torino FC	45.07048584300048	7.686856499999999	Torino FC	2.271	2.883	2.833	16.800	16.800	16.800
Marek Hamšík	Slovakia	27/07/1987	28	Napoli	ITA	90	183	79	Midfield	4	360	1	1	None	None	None	1	4	5	0	1	2	0	0	SSC Napoli	40.85405189999999	14.2681244	SSC Napoli	21.271	8.883	18.833	25.800	25.800	25.800
Daryl Murphy	Republic of Ireland	15/03/1983	33	Ipswich	ENG	20	191	88	Forward	2	None	None	None	None	None	None	2	0	1	0	4	1	0	0	Ipswich Town FC	52.059166682000466	1.1554459070004555	None	None	None	None	None	None	None
Seamus Coleman	Republic of Ireland	11/10/1988	27	Everton	ENG	36	177	67	Defender	4	None	None	None	None	None	None	0	0	1	0	6	3	1	0	Everton FC	53.4294901340005	-2.966368	Everton FC	3.050	3.285	3.357	16.714	16.714	16.714
Răzvan Raţ	Romania	26/05/1981	35	Rayo Vallecano	ESP	113	178	72	Defender	2	None	None	None	None	None	None	0	0	1	0	2	1	1	0	Rayo Vallecano de Madrid	40.37656987100047	-3.6115975759995536	None	None	None	None	None	None	None
Alessandro Florenzi	Italy	11/03/1991	25	Roma	ITA	18	173	67	Midfield	3	None	None	None	None	None	None	1	1	0	0	2	1	0	0	AS Roma	41.8971715	12.4728221	AS Roma	3.771	2.883	2.833	15.800	15.800	15.800
Ashley Williams	Wales	23/08/1984	31	Swansea	ENG	62	183	71	Defender	4	None	None	None	None	None	None	0	2	0	0	5	2	0	0	Swansea City AFC	51.62144	-3.9432271479995507	Swansea City AFC	3.050	3.285	10.357	2.714	2.714	2.714
Cristiano Ronaldo	Portugal	05/02/1985	31	Real Madrid	ESP	128	185	80	Forward	4	390	2	2	None	None	None	9	13	11	1	5	9	0	0	Real Madrid CF	40.42492708000049	-3.678367150999577	Real Madrid CF	36.171	29.542	39.600	33.042	33.042	33.042
Birkir Bjarnason	Iceland	27/05/1988	28	Basel	SUI	49	182	75	Midfield	4	360	1	0	None	None	None	1	1	0	0	7	4	1	0	FC Basel 1893	47.5595986	7.5885761	FC Basel 1893	20.200	17.675	20.440	16.380	16.380	16.380
David Pavelka	Czech Republic	18/05/1991	25	Kasımpaşa	TUR	10	185	74	Midfield	2	None	None	None	None	None	None	0	0	0	0	3	0	1	0	Kasımpaşa SK	41.03285	28.968241264000483	None	None	None	None	None	None	None
Corry Evans	Northern Ireland	30/07/1990	25	Blackburn	ENG	36	173	70	Midfield	3	None	None	None	None	None	None	0	0	1	0	6	3	0	0	Blackburn Rovers FC	53.7499996410005	-2.48332719599955	None	None	None	None	None	None	None
Jazz Richards	Wales	12/04/1991	25	Fulham	ENG	10	185	78	Defender	1	None	None	None	None	None	None	0	0	0	0	None	None	None	None	Fulham FC	51.4754674670005	-0.2209317	Fulham FC	9.050	3.285	3.357	2.714	2.714	2.714
Aleksei Berezutski	Russia	20/06/1982	34	CSKA Moskva	RUS	56	190	87	Defender	1	None	None	None	None	None	None	0	0	0	0	None	None	None	None	PFC CSKA Moskva	57.44911719900051	37.6173	PFC CSKA Moskva	17.950	3.450	8.083	9.933	9.933	9.933
Eren Derdiyok	Switzerland	12/06/1988	28	Kasımpaşa	TUR	52	191	90	Forward	1	None	None	None	None	None	None	1	1	1	0	None	None	None	None	Kasımpaşa SK	41.03285	28.968241264000483	None	None	None	None	None	None	None
Silviu Lung	Romania	04/06/1989	27	Astra	ROU	3	189	78	Goalkeeper	0	None	None	None	None	None	None	0	0	0	0	None	None	None	None	FC Astra Giurgiu	45.63917800000001	25.6269792	FC Astra Giurgiu	0.866	1.360	2.875	4.025	4.025	4.025
Gordon Schildenfeld	Croatia	18/03/1985	31	Dinamo Zagreb	CRO	29	191	89	Defender	2	None	None	None	None	None	None	0	0	0	0	None	None	None	None	GNK Dinamo Zagreb	45.82139720800046	16.047697900000458	GNK Dinamo Zagreb	4.750	5.875	2.875	5.375	5.375	5.375
Daniel Kolář	Czech Republic	27/10/1985	30	Plzeň	CZE	29	180	77	Midfield	1	None	None	None	None	None	None	0	0	0	0	None	None	None	None	FC Viktoria Plzeň	49.750358561000496	13.3842745	FC Viktoria Plzeň	10.050	15.700	12.600	1.775	1.775	1.775
Gianluigi Buffon	Italy	28/01/1978	38	Juventus	ITA	158	192	91	Goalkeeper	3	None	None	None	None	None	None	0	0	0	0	0	0	1	0	Torino Juventus	45.1089928	7.638763099999998	Juventus	2.271	25.883	25.833	32.800	32.800	32.800
Danny Ward	Wales	22/06/1993	23	Liverpool	ENG	3	191	88	Goalkeeper	1	None	None	None	None	None	None	0	0	0	0	None	None	None	None	Liverpool FC	53.41057676100047	-2.9779368059995477	Liverpool FC	3.050	12.285	3.357	12.714	12.714	12.714
Petr Čech	Czech Republic	20/05/1982	34	Arsenal	ENG	124	196	90	Goalkeeper	3	None	None	None	None	None	None	0	0	0	0	None	None	None	None	Arsenal FC	51.5540370060005	-0.105505	Arsenal FC	22.050	21.285	21.357	22.714	22.714	22.714
Gabriel Torje	Romania	22/11/1989	26	Osmanlıspor	TUR	54	168	71	Midfield	3	None	None	None	None	None	None	1	1	2	0	2	2	1	0	Osmanlıspor	41.0143	28.62652	None	None	None	None	None	None	None
Fabian Frei	Switzerland	08/01/1989	27	Mainz	GER	9	182	77	Midfield	1	None	None	None	None	None	None	0	0	1	0	1	1	0	0	1. FSV Mainz 05	49.9935994	8.2472526	1. FSV Mainz 05	4.050	3.585	2.942	4.171	4.171	4.171
Renato Sanches	Portugal	18/08/1997	18	Benfica	POR	6	176	70	Midfield	3	None	None	None	None	None	None	0	1	0	0	7	3	0	0	SL Benfica	38.75205652700049	-9.18322816199958	SL Benfica	23.366	28.350	30.983	9.816	9.816	9.816
Patrice Evra	France	15/05/1981	35	Juventus	ITA	76	174	74	Defender	4	None	None	None	None	None	None	0	0	0	0	6	3	0	0	Torino Juventus	45.1089928	7.638763099999998	Juventus	2.271	25.883	25.833	32.800	32.800	32.800
Jaroslav Plašil	Czech Republic	05/01/1982	34	Bordeaux	FRA	103	182	72	Midfield	3	None	None	None	None	None	None	1	1	0	0	4	4	1	0	FC Girondins de Bordeaux	44.84043925700047	-0.57918	FC Girondins de Bordeaux	2.100	14.350	3.700	2.183	2.183	2.183
Ján Greguš	Slovakia	29/01/1991	25	Jablonec	CZE	7	189	70	Midfield	1	None	None	None	None	None	None	0	1	0	0	None	None	None	None	FK Jablonec	50.71597737400049	15.1632592	FK Jablonec	2.050	1.700	3.100	0.775	0.775	0.775
Lucas Vázquez	Spain	01/07/1991	24	Real Madrid	ESP	1	173	70	Forward	1	None	None	None	None	None	None	0	0	0	0	None	None	None	None	Real Madrid CF	40.42492708000049	-3.678367150999577	Real Madrid CF	36.171	29.542	39.600	33.042	33.042	33.042
Krisztián Németh	Hungary	05/01/1989	27	Al-Gharafa	QAT	24	180	74	Forward	2	None	None	None	None	None	None	1	0	0	0	2	1	1	0	Al-Gharafa Sports Club	25.3325814	51.44670929999999	None	None	None	None	None	None	None
Stephan Lichtsteiner	Switzerland	16/01/1984	32	Juventus	ITA	84	182	75	Defender	4	None	None	None	None	None	None	1	0	1	0	2	7	0	0	Torino Juventus	45.1089928	7.638763099999998	Juventus	2.271	25.883	25.833	32.800	32.800	32.800
Ben Davies	Wales	24/04/1993	23	Tottenham	ENG	23	181	76	Defender	4	None	None	None	None	None	None	0	0	0	0	2	4	1	0	Tottenham Hotspur FC	51.603726097000504	-0.06783299999999999	Tottenham Hotspur FC	10.050	19.285	18.357	11.714	11.714	11.714
Erik Johansson	Sweden	30/12/1988	27	København	DEN	10	191	84	Defender	3	None	None	None	None	None	None	0	0	0	0	4	3	1	0	FC København	55.6760968	12.5683371	FC København	4.620	6.660	7.760	3.580	3.580	3.580
Roman Neustädter	Russia	18/02/1988	28	Schalke	GER	5	190	83	Defender	2	None	None	None	None	None	None	0	0	0	0	2	0	0	0	FC Schalke 04	51.559463	7.0622516	FC Schalke 04	20.050	22.585	18.942	20.171	20.171	20.171
Norbert Gyömber	Slovakia	03/07/1992	23	Roma	ITA	14	189	74	Defender	2	None	None	None	None	None	None	0	0	0	0	1	1	0	0	AS Roma	41.8971715	12.4728221	AS Roma	3.771	2.883	2.833	15.800	15.800	15.800
Rafa Silva	Portugal	17/05/1993	23	Braga	POR	9	170	63	Midfield	1	None	None	None	None	None	None	0	0	0	0	None	None	None	None	SC Braga	41.55160991500048	-8.426506999999999	SC Braga	12.366	8.350	3.483	1.816	1.816	1.816
Tomasz Jodłowiec	Poland	08/09/1985	30	Legia	POL	46	189	91	Midfield	4	None	None	None	None	None	None	1	0	1	0	1	0	0	0	Legia Warszawa	52.22154827300051	21.0424143	Legia Warszawa	8.325	2.000	2.625	10.950	10.950	10.950
François Moubandje	Switzerland	21/06/1990	26	Toulouse	FRA	11	180	74	Defender	0	None	None	None	None	None	None	0	0	0	0	None	None	None	None	Toulouse FC	43.604652	1.444209	None	None	None	None	None	None	None
James Milner	England	04/01/1986	30	Liverpool	ENG	61	175	70	Midfield	1	None	None	None	None	None	None	0	0	0	0	None	None	None	None	Liverpool FC	53.41057676100047	-2.9779368059995477	Liverpool FC	3.050	12.285	3.357	12.714	12.714	12.714
Barnabás Bese	Hungary	06/05/1994	22	MTK	HUN	1	188	84	Defender	1	None	None	None	None	None	None	0	0	0	0	1	0	0	0	MTK Budapest	47.5068059	19.092078248000462	MTK Budapest	0.450	0.850	0.175	0.425	0.425	0.425
Jonas Hector	Germany	27/05/1990	26	Köln	GER	17	185	75	Defender	4	None	None	None	None	None	None	0	3	0	0	3	5	0	0	1. FC Köln	50.93332608700047	6.876264700000001	None	None	None	None	None	None	None
Robert Almer	Austria	20/03/1984	32	Austria Wien	AUT	30	194	88	Goalkeeper	3	None	None	None	None	None	None	0	0	0	0	None	None	None	None	FK Austria Wien	48.21043771000046	16.37766711900042	FK Austria Wien	7.425	0.450	9.560	0.825	0.825	0.825
Jakub Wawrzyniak	Poland	07/07/1983	32	Lechia	POL	46	188	85	Defender	0	None	None	None	None	None	None	0	0	0	0	None	None	None	None	Lechia Gdańsk	54.3904704	18.6371333	None	None	None	None	None	None	None
Cristian Săpunaru	Romania	05/04/1984	32	Pandurii	ROU	16	187	81	Defender	3	None	None	None	None	None	None	0	2	0	1	4	4	1	0	CS Pandurii Târgu Jiu	44.6698463	24.844529	CS Pandurii Târgu Jiu	0.866	1.360	3.375	1.025	1.025	1.025
Alessandro Schöpf	Austria	07/02/1994	22	Schalke	GER	6	178	75	Midfield	3	83	1	0	None	None	None	3	1	1	0	3	2	1	0	FC Schalke 04	51.559463	7.0622516	FC Schalke 04	20.050	22.585	18.942	20.171	20.171	20.171
Yannick Carrasco	Belgium	04/09/1993	22	Atlético	ESP	6	180	67	Midfield	4	169	1	0	None	None	None	1	0	0	0	1	0	0	0	Club Atlético de Madrid	40.4206094	-3.721263	Club Atlético de Madrid	34.171	13.542	37.600	26.042	26.042	26.042
Thiago Motta	Italy	28/08/1982	33	Paris	FRA	28	183	82	Midfield	4	None	None	None	None	None	None	0	0	0	0	5	1	2	0	Paris Saint-Germain	48.853408154000476	2.3337563460004276	Paris Saint-Germain	9.100	27.350	26.700	23.183	23.183	23.183
Xherdan Shaqiri	Switzerland	10/10/1991	24	Stoke	ENG	56	169	72	Midfield	4	377	1	1	None	None	None	4	3	3	0	9	2	0	0	Stoke City FC	53.004145827000514	-2.179404	Stoke City FC	11.050	3.285	3.357	2.714	2.714	2.714
Owain Fôn Williams	Wales	17/03/1987	29	Inverness	SCO	1	193	77	Goalkeeper	0	None	None	None	None	None	None	0	0	0	0	None	None	None	None	Inverness Caledonian Thistle FC	57.48100556000048	-4.224721	Inverness Caledonian Thistle FC	0.550	0.860	0.650	0.800	0.800	0.800
Kevin Wimmer	Austria	15/11/1992	23	Tottenham	ENG	4	187	85	Defender	1	None	None	None	None	None	None	0	0	0	0	None	None	None	None	Tottenham Hotspur FC	51.603726097000504	-0.06783299999999999	Tottenham Hotspur FC	10.050	19.285	18.357	11.714	11.714	11.714
Sebastian Larsson	Sweden	06/06/1985	31	Sunderland	ENG	86	178	70	Midfield	3	None	None	None	None	None	None	0	1	0	0	6	0	0	0	Sunderland AFC	54.913871593000465	-1.3857190399995716	None	None	None	None	None	None	None
Cesc Fàbregas	Spain	04/05/1987	29	Chelsea	ENG	109	175	74	Midfield	4	None	None	None	None	None	None	0	1	1	0	6	3	0	0	Chelsea FC	51.480877998000494	-0.18943975099955424	Chelsea FC	33.050	30.285	28.357	23.714	23.714	23.714
Daniele De Rossi	Italy	24/07/1983	32	Roma	ITA	105	184	83	Midfield	3	None	None	None	None	None	None	0	0	0	0	4	5	1	0	AS Roma	41.8971715	12.4728221	AS Roma	3.771	2.883	2.833	15.800	15.800	15.800
Danijel Subašić	Croatia	27/10/1984	31	Monaco	FRA	24	191	87	Goalkeeper	4	None	None	None	None	None	None	0	0	0	0	None	None	None	None	AS Monaco FC	43.73741099999999	7.420815999999999	AS Monaco FC	2.100	2.350	1.700	23.183	23.183	23.183
Jordan Henderson	England	17/06/1990	26	Liverpool	ENG	27	182	67	Midfield	1	None	None	None	None	None	None	0	0	2	0	1	0	0	0	Liverpool FC	53.41057676100047	-2.9779368059995477	Liverpool FC	3.050	12.285	3.357	12.714	12.714	12.714
Aron Gunnarsson	Iceland	22/04/1989	27	Cardiff	WAL	61	178	70	Midfield	4	None	None	None	None	None	None	1	0	0	0	12	7	1	0	Cardiff City FC	51.479996076000475	-3.17909	None	None	None	None	None	None	None
Rubin Okotie	Austria	06/06/1987	29	1860 München	GER	18	188	86	Forward	1	None	None	None	None	None	None	0	0	0	0	None	None	None	None	TSV 1860 Munich	48.136410097000464	11.5836489	None	None	None	None	None	None	None
Marcus Berg	Sweden	17/08/1986	29	Panathinaikos	GRE	39	184	75	Forward	3	None	None	None	None	None	None	1	1	0	0	5	4	0	0	Panathinaikos FC	38.01197570000045	23.691385615000456	Panathinaikos FC	3.020	4.880	1.220	3.240	3.240	3.240
Jakub Błaszczykowski	Poland	14/12/1985	30	Fiorentina	ITA	82	176	77	Midfield	4	325	2	1	None	None	None	3	1	2	0	4	5	0	0	ACF Fiorentina	42.96402994300047	10.536040042000423	ACF Fiorentina	2.271	2.883	17.833	23.800	23.800	23.800
Lorenzo Insigne	Italy	04/06/1991	25	Napoli	ITA	9	163	59	Forward	2	None	None	None	None	None	None	1	1	0	1	1	0	1	0	SSC Napoli	40.85405189999999	14.2681244	SSC Napoli	21.271	8.883	18.833	25.800	25.800	25.800
Manuel Neuer	Germany	27/03/1986	30	Bayern	GER	68	193	92	Goalkeeper	4	None	None	None	None	None	None	0	0	0	0	None	None	None	None	FC Bayern München	48.1326687	11.499996453000449	FC Bayern München	33.050	36.585	29.942	31.171	31.171	31.171
Johann Gudmundsson	Iceland	27/10/1990	25	Charlton	ENG	49	178	72	Forward	4	None	None	None	None	None	None	1	1	0	1	3	1	1	0	Charlton Athletic FC	51.48729900000001	0.0348582	None	None	None	None	None	None	None
Vedran Ćorluka	Croatia	05/02/1986	30	Lokomotiv Moskva	RUS	90	192	84	Defender	4	None	None	None	None	None	None	0	0	0	0	None	None	None	None	FC Lokomotiv Moskva	55.800076	37.739931	FC Lokomotiv Moskva	11.950	1.950	2.083	3.433	3.433	3.433
Ergys Kaçe	Albania	08/07/1993	22	PAOK	GRE	17	170	62	Midfield	1	None	None	None	None	None	None	0	0	1	0	1	2	1	0	PAOK Thessaloniki	40.6400629	22.98016972700043	PAOK FC	11.520	2.380	10.220	6.240	6.240	6.240
Jimmy Durmaz	Sweden	22/03/1989	27	Olympiacos	GRE	31	180	69	Midfield	2	None	None	None	None	None	None	0	1	0	0	None	None	None	None	Olympiacos FC	39.383427000000495	23.3274646	Olympiacos FC	17.520	10.880	19.220	12.240	12.240	12.240
Serhiy Sydorchuk	Ukraine	02/05/1991	25	Dynamo Kyiv	UKR	14	189	90	Midfield	2	None	None	None	None	None	None	0	1	1	0	3	1	1	0	FC Dynamo Kyiv	50.32	30.564428	FC Dynamo Kyiv	7.550	10.900	9.566	18.000	18.000	18.000
Caner Erkin	Turkey	04/10/1988	27	Fenerbahçe	TUR	49	181	76	Defender	2	None	None	None	None	None	None	1	0	0	0	1	1	0	0	Fenerbahçe SK	40.97428620000001	29.0430833	Fenerbahçe SK	1.020	24.040	1.340	1.200	1.200	1.200
Aleksandr Samedov	Russia	19/07/1984	31	Lokomotiv Moskva	RUS	30	177	75	Midfield	1	None	None	None	None	None	None	0	0	0	0	None	None	None	None	FC Lokomotiv Moskva	55.800076	37.739931	FC Lokomotiv Moskva	11.950	1.950	2.083	3.433	3.433	3.433
Heinz Lindner	Austria	17/07/1990	25	Frankfurt	GER	8	187	80	Goalkeeper	0	None	None	None	None	None	None	0	0	0	0	None	None	None	None	Eintracht Frankfurt	50.115519157000506	8.684168824000437	Eintracht Frankfurt	3.050	3.585	14.942	3.171	3.171	3.171
Florian Klein	Austria	17/11/1986	29	Stuttgart	GER	39	180	66	Defender	3	None	None	None	None	None	None	0	0	0	0	4	5	0	0	VfB Stuttgart	48.7932328	9.1829321	VfB Stuttgart	3.050	12.585	4.442	3.171	3.171	3.171
Danilo	Portugal	09/09/1991	24	Porto	POR	13	188	83	Midfield	3	None	None	None	None	None	None	0	0	1	0	2	0	0	0	FC Porto	41.159082	-8.608525658999554	FC Porto	12.366	22.350	17.983	26.816	26.816	26.816
Yunus Mallı	Turkey	24/02/1992	24	Mainz	GER	7	179	70	Midfield	1	None	None	None	None	None	None	0	1	0	0	None	None	None	None	1. FSV Mainz 05	49.9935994	8.2472526	1. FSV Mainz 05	4.050	3.585	2.942	4.171	4.171	4.171
James Chester	Wales	23/01/1989	27	West Brom	ENG	14	177	75	Defender	4	None	None	None	None	None	None	0	0	1	0	3	2	0	0	West Bromwich Albion FC	52.5120994	-1.9796204759995817	None	None	None	None	None	None	None
Olexandr Karavaev	Ukraine	02/06/1992	24	Zorya	UKR	3	173	65	Midfield	0	None	None	None	None	None	None	0	0	0	0	None	None	None	None	FC Zorya Luhansk	50.93433849700051	26.0266362	FC Zorya Luhansk	1.550	1.900	1.566	3.500	3.500	3.500
Pepe	Portugal	26/02/1983	33	Real Madrid	ESP	73	188	81	Defender	4	None	None	None	None	None	None	1	2	0	0	4	7	1	0	Real Madrid CF	40.42492708000049	-3.678367150999577	Real Madrid CF	36.171	29.542	39.600	33.042	33.042	33.042
Sergio Busquets	Spain	16/07/1988	27	Barcelona	ESP	86	189	76	Midfield	4	None	None	None	None	None	None	0	1	0	0	3	7	1	0	FC Barcelona	41.3813544	2.1203177860004416	FC Barcelona	34.171	27.542	28.600	38.042	38.042	38.042
Ján Novota	Slovakia	29/11/1983	32	Rapid Wien	AUT	3	197	90	Goalkeeper	0	None	None	None	None	None	None	0	0	0	0	None	None	None	None	SK Rapid Wien	48.2081743	16.3738189	SK Rapid Wien	1.425	2.450	6.560	2.325	2.325	2.325
Taulant Xhaka	Albania	28/03/1991	25	Basel	SUI	13	172	72	Midfield	2	None	None	None	None	None	None	0	1	0	0	None	None	None	None	FC Basel 1893	47.5595986	7.5885761	FC Basel 1893	20.200	17.675	20.440	16.380	16.380	16.380
Tin Jedvaj	Croatia	28/11/1995	20	Leverkusen	GER	4	184	80	Defender	1	None	None	None	None	None	None	1	0	0	0	None	None	None	None	Bayer 04 Leverkusen	51.03319008200049	6.984318665000444	Bayer 04 Leverkusen	19.050	12.585	18.942	21.171	21.171	21.171
Adrian Popa	Romania	24/07/1988	27	Steaua	ROU	16	169	71	Midfield	2	None	None	None	None	None	None	0	0	0	0	2	0	1	0	FC Steaua Bucureşti	44.42120380000001	24.3843233	FC Steaua Bucureşti	6.866	13.360	8.375	6.025	6.025	6.025
Shani Tarashaj	Switzerland	07/02/1995	21	Grasshoppers	SUI	5	176	77	Forward	1	None	None	None	None	None	None	0	0	0	0	None	None	None	None	Grasshopper Club Zürich	47.3768866	8.541694	Grasshopper Club Zürich	1.200	1.675	2.940	2.880	2.880	2.880
James McCarthy	Republic of Ireland	12/11/1990	25	Everton	ENG	37	180	72	Midfield	4	None	None	None	None	None	None	0	0	0	0	9	3	1	0	Everton FC	53.4294901340005	-2.966368	Everton FC	3.050	3.285	3.357	16.714	16.714	16.714
Ciprian Tătăruşanu	Romania	09/02/1986	30	Fiorentina	ITA	40	195	88	Goalkeeper	3	None	None	None	None	None	None	0	0	0	0	None	None	None	None	ACF Fiorentina	42.96402994300047	10.536040042000423	ACF Fiorentina	2.271	2.883	17.833	23.800	23.800	23.800
Łukasz Fabiański	Poland	18/04/1985	31	Swansea	ENG	32	190	83	Goalkeeper	3	None	None	None	None	None	None	0	0	0	0	None	None	None	None	Swansea City AFC	51.62144	-3.9432271479995507	Swansea City AFC	3.050	3.285	10.357	2.714	2.714	2.714
Michał Pazdan	Poland	21/09/1987	28	Legia	POL	18	181	78	Defender	4	None	None	None	None	None	None	0	2	0	0	5	0	1	0	Legia Warszawa	52.22154827300051	21.0424143	Legia Warszawa	8.325	2.000	2.625	10.950	10.950	10.950
Mikael Lustig	Sweden	13/12/1986	29	Celtic	SCO	53	189	78	Defender	1	None	None	None	None	None	None	0	0	0	0	None	None	None	None	Celtic FC	57.478435	-4.2212204	Celtic FC	5.550	16.860	6.650	7.800	7.800	7.800
Laurent Ciman	Belgium	05/08/1985	30	Montreal	CAN	12	184	70	Defender	1	None	None	None	None	None	None	0	0	1	0	None	None	None	None	Montreal Impact	45.50883694400045	-73.567256	None	None	None	None	None	None	None
Kyle Lafferty	Northern Ireland	16/09/1987	28	Birmingham	ENG	53	193	88	Forward	3	None	None	None	None	None	None	0	2	0	0	9	6	0	0	Birmingham City FC	52.48624299999999	-1.890401	Birmingham City FC	10.050	3.285	3.357	2.714	2.714	2.714
Alban Hoxha	Albania	23/11/1987	28	Partizani	ALB	1	188	79	Goalkeeper	0	None	None	None	None	None	None	0	0	0	0	None	None	None	None	FK Partizani Tirana	40.7279595	19.93332809700047	FK Partizani	0.175	0.150	0.400	0.175	0.175	0.175
Jiří Skalák	Czech Republic	12/03/1992	24	Brighton	ENG	11	177	76	Midfield	1	None	None	None	None	None	None	0	0	0	0	None	None	None	None	Brighton & Hove Albion FC	50.86070549999999	-0.137163	None	None	None	None	None	None	None
Denis Glushakov	Russia	27/01/1987	29	Spartak Moskva	RUS	46	182	80	Midfield	3	145	1	0	None	None	None	1	3	0	0	6	0	0	0	FC Spartak Moskva	55.7310552	37.5649667	FC Spartak Moskva	3.450	7.950	3.583	1.933	1.933	1.933
Lukas Podolski	Germany	04/06/1985	31	Galatasaray	TUR	128	182	83	Forward	1	None	None	None	None	None	None	0	0	0	0	None	None	None	None	Galatasaray AŞ	41.103203	28.991243	Galatasaray AŞ	1.020	24.040	16.340	6.200	6.200	6.200
Andriy Yarmolenko	Ukraine	23/10/1989	26	Dynamo Kyiv	UKR	62	189	81	Midfield	3	None	None	None	None	None	None	3	1	2	0	2	6	0	0	FC Dynamo Kyiv	50.32	30.564428	FC Dynamo Kyiv	7.550	10.900	9.566	18.000	18.000	18.000
Oleg Ivanov	Russia	04/08/1986	29	Terek	RUS	5	192	87	Midfield	0	None	None	None	None	None	None	0	0	0	0	None	None	None	None	FC Terek Grozny	43.48332818400047	44.1393572	None	None	None	None	None	None	None
Šime Vrsaljko	Croatia	10/01/1992	24	Sassuolo	ITA	21	183	75	Defender	2	None	None	None	None	None	None	0	0	0	0	1	1	1	0	US Sassuolo Calcio	44.54433	10.7847741	None	None	None	None	None	None	None
Jonathan Williams	Wales	09/10/1993	22	Crystal Palace	ENG	14	168	60	Midfield	3	None	None	None	None	None	None	0	1	0	0	2	4	0	0	Crystal Palace FC	51.4003895	-0.07853809199957595	None	None	None	None	None	None	None
Thibaut Courtois	Belgium	11/05/1992	24	Chelsea	ENG	39	199	91	Goalkeeper	4	None	None	None	None	None	None	0	0	0	0	None	None	None	None	Chelsea FC	51.480877998000494	-0.18943975099955424	Chelsea FC	33.050	30.285	28.357	23.714	23.714	23.714
Angelo Ogbonna	Italy	23/05/1988	28	West Ham	ENG	11	191	86	Defender	1	None	None	None	None	None	None	0	0	0	0	3	2	0	0	West Ham United FC	51.57045970000001	0.14751	West Ham United FC	3.050	3.285	3.357	2.714	2.714	2.714
Hakan Balta	Turkey	23/03/1983	33	Galatasaray	TUR	49	184	80	Defender	3	None	None	None	None	None	None	0	1	0	0	3	3	2	0	Galatasaray AŞ	41.103203	28.991243	Galatasaray AŞ	1.020	24.040	16.340	6.200	6.200	6.200
Ragnar Sigurdsson	Iceland	19/06/1986	30	Krasnodar	RUS	58	187	77	Defender	4	360	1	0	None	None	None	2	0	0	0	1	5	0	0	FC Krasnodar	45.03926740000001	38.97485574200044	FC Krasnodar	1.950	1.950	2.083	6.933	6.933	6.933
Mihály Korhut	Hungary	01/12/1988	27	Debrecen	HUN	5	181	76	Defender	1	None	None	None	None	None	None	0	0	0	0	2	0	0	0	Debreceni VSC	47.5333287950005	21.633326743000453	Debreceni VSC	0.450	2.100	0.675	1.925	1.925	1.925
Pedro Rodríguez	Spain	28/07/1987	28	Chelsea	ENG	58	167	62	Forward	2	None	None	None	None	None	None	0	1	0	0	None	None	None	None	Chelsea FC	51.480877998000494	-0.18943975099955424	Chelsea FC	33.050	30.285	28.357	23.714	23.714	23.714
Richárd Guzmics	Hungary	16/04/1987	29	Wisła	POL	16	190	80	Defender	4	None	None	None	None	None	None	0	0	0	0	3	1	1	0	Wisła Kraków	50.43713890000001	23.40691878800044	Wisła Kraków	9.325	0.500	0.625	0.950	0.950	0.950
Gareth Bale	Wales	16/07/1989	26	Real Madrid	ESP	58	183	74	Forward	4	353	3	1	None	None	None	12	4	2	0	3	7	0	0	Real Madrid CF	40.42492708000049	-3.678367150999577	Real Madrid CF	36.171	29.542	39.600	33.042	33.042	33.042
Florin Andone	Romania	11/04/1993	23	Córdoba	ESP	9	182	78	Forward	3	None	None	None	None	None	None	0	3	0	1	3	1	0	0	Córdoba CF	37.8881751	-4.766667577999556	None	None	None	None	None	None	None
Bartosz Kapustka	Poland	23/12/1996	19			10	179	60	Midfield	3	None	None	None	None	None	None	1	2	1	0	5	2	2	0	KS Cracovia	50.0284188	19.9726595	None	None	None	None	None	None	None
Martin Hinteregger	Austria	07/09/1992	23	Mönchengladbach	GER	16	184	78	Defender	3	None	None	None	None	None	None	0	2	4	0	4	1	1	0	VfL Borussia Mönchengladbach	51.185389219000456	6.4428041	VfL Borussia Mönchengladbach	3.050	12.585	2.942	12.171	12.171	12.171
Valerică Găman	Romania	25/02/1989	27	Astra	ROU	14	188	72	Defender	0	None	None	None	None	None	None	0	0	0	0	None	None	None	None	FC Astra Giurgiu	45.63917800000001	25.6269792	FC Astra Giurgiu	0.866	1.360	2.875	4.025	4.025	4.025
Valon Behrami	Switzerland	19/04/1985	31	Watford	ENG	69	185	78	Midfield	4	None	None	None	None	None	None	0	0	1	0	7	10	1	0	Watford FC	51.656489	-0.39032	None	None	None	None	None	None	None
Jean-François Gillet	Belgium	31/05/1979	37	Mechelen	BEL	9	181	82	Goalkeeper	0	None	None	None	None	None	None	0	0	0	0	None	None	None	None	KV Mechelen	51.0258791	4.477536499999999	None	None	None	None	None	None	None
Pavel Kadeřábek	Czech Republic	25/04/1992	24	Hoffenheim	GER	21	182	81	Defender	3	None	None	None	None	None	None	1	1	1	0	5	4	0	0	TSG 1899 Hoffenheim	49.27284710000001	8.841700090000415	None	None	None	None	None	None	None
Hal Robson-Kanu	Wales	21/05/1989	27	Reading	ENG	32	183	83	Forward	3	126	1	0	None	None	None	1	0	0	0	1	3	0	0	Reading FC	51.4375166	-0.9158363	None	None	None	None	None	None	None
Oscar Hiljemark	Sweden	28/06/1992	23	Palermo	ITA	9	184	75	Midfield	0	None	None	None	None	None	None	0	0	0	0	None	None	None	None	US Città di Palermo	38.11581748500049	13.3612671	US Città di Palermo	3.271	2.883	2.833	3.800	3.800	3.800
Breel Embolo	Switzerland	14/02/1997	19	Basel	SUI	13	185	84	Forward	4	None	None	None	None	None	None	0	2	3	0	7	7	1	0	FC Basel 1893	47.5595986	7.5885761	FC Basel 1893	20.200	17.675	20.440	16.380	16.380	16.380
David Silva	Spain	08/01/1986	30	Man. City	ENG	102	173	67	Midfield	4	None	None	None	None	None	None	1	3	4	0	5	5	1	0	Manchester City FC	53.4807593	-2.272817876999568	Manchester City FC	20.050	10.285	22.357	17.714	17.714	17.714
Stephan El Shaarawy	Italy	27/10/1992	23	Roma	ITA	19	178	72	Forward	1	None	None	None	None	None	None	1	0	0	0	None	None	None	None	AS Roma	41.8971715	12.4728221	AS Roma	3.771	2.883	2.833	15.800	15.800	15.800
Tomáš Necid	Czech Republic	13/08/1989	26	Bursaspor	TUR	42	190	81	Forward	3	169	1	0	None	None	None	3	1	0	0	4	6	0	0	Bursaspor	40.21297788800047	29.157478066000465	Bursaspor	2.520	3.540	2.340	1.700	1.700	1.700
Salvatore Sirigu	Italy	12/01/1987	29	Paris	FRA	16	192	80	Goalkeeper	1	None	None	None	None	None	None	0	0	0	0	0	1	1	0	Paris Saint-Germain	48.853408154000476	2.3337563460004276	Paris Saint-Germain	9.100	27.350	26.700	23.183	23.183	23.183
Marcelo Brozović	Croatia	16/11/1992	23	Internazionale	ITA	19	181	68	Midfield	3	None	None	None	None	None	None	1	7	1	0	8	5	1	0	FC Internazionale Milano	45.7924983	7.764657419000457	FC Internazionale Milano	20.271	16.883	2.833	15.800	15.800	15.800
Sergio Ramos	Spain	30/03/1986	30	Real Madrid	ESP	134	183	75	Defender	4	None	None	None	None	None	None	1	6	2	0	6	7	1	0	Real Madrid CF	40.42492708000049	-3.678367150999577	Real Madrid CF	36.171	29.542	39.600	33.042	33.042	33.042
Ádám Pintér	Hungary	12/06/1988	28	Ferencváros	HUN	21	190	76	Defender	3	None	None	None	None	None	None	1	1	0	0	None	None	None	None	Ferencvárosi TC	47.48583551000047	19.0819885	Ferencvárosi TC	0.950	0.600	0.175	0.925	0.925	0.925
Yevhen Khacheridi	Ukraine	28/07/1987	28	Dynamo Kyiv	UKR	45	198	85	Defender	3	None	None	None	None	None	None	1	0	0	0	3	2	0	0	FC Dynamo Kyiv	50.32	30.564428	FC Dynamo Kyiv	7.550	10.900	9.566	18.000	18.000	18.000
Armando Sadiku	Albania	27/05/1991	25	Vaduz	LIE	22	185	80	Forward	3	231	1	0	None	None	None	2	1	2	0	5	2	0	0	FC Vaduz	47.141508065000494	9.521640000000446	FC Vaduz	1.400	0.000	0.450	1.000	1.000	1.000
Victor Lindelöf	Sweden	17/07/1994	21	Benfica	POR	5	187	80	Defender	3	None	None	None	None	None	None	0	0	0	0	1	2	1	0	SL Benfica	38.75205652700049	-9.18322816199958	SL Benfica	23.366	28.350	30.983	9.816	9.816	9.816
Oliver Norwood	Northern Ireland	12/04/1991	25	Reading	ENG	37	180	76	Midfield	4	None	None	None	None	None	None	2	0	0	0	7	6	0	0	Reading FC	51.4375166	-0.9158363	None	None	None	None	None	None	None
Mërgim Mavraj	Albania	09/06/1986	30	Köln	GER	29	189	84	Defender	3	None	None	None	None	None	None	0	3	0	0	1	1	1	0	1. FC Köln	50.93332608700047	6.876264700000001	None	None	None	None	None	None	None
Bacary Sagna	France	14/02/1983	33	Man. City	ENG	60	176	72	Defender	4	None	None	None	None	None	None	0	1	0	0	None	None	None	None	Manchester City FC	53.4807593	-2.272817876999568	Manchester City FC	20.050	10.285	22.357	17.714	17.714	17.714
Kingsley Coman	France	13/06/1996	20	Bayern	GER	8	178	71	Midfield	4	None	None	None	None	None	None	0	2	1	0	1	8	0	0	FC Bayern München	48.1326687	11.499996453000449	FC Bayern München	33.050	36.585	29.942	31.171	31.171	31.171
Alexandru Chipciu	Romania	18/05/1989	27	Steaua	ROU	24	177	74	Midfield	2	None	None	None	None	None	None	0	1	1	0	2	1	1	0	FC Steaua Bucureşti	44.42120380000001	24.3843233	FC Steaua Bucureşti	6.866	13.360	8.375	6.025	6.025	6.025
Darijo Srna	Croatia	01/05/1982	34	Shakhtar Donetsk	UKR	132	178	78	Defender	4	None	None	None	None	None	None	0	3	1	1	3	15	1	0	FC Shakhtar Donetsk	47.971263	37.80285	FC Shakhtar Donetsk	9.550	18.900	12.566	19.000	19.000	19.000
Federico Marchetti	Italy	07/02/1983	33	Lazio	ITA	11	188	73	Goalkeeper	0	None	None	None	None	None	None	0	0	0	0	None	None	None	None	SS Lazio	41.92843716100049	12.4851941	SS Lazio	9.271	20.883	12.833	3.800	3.800	3.800
László Kleinheisler	Hungary	08/04/1994	22	Bremen	GER	7	173	70	Midfield	2	None	None	None	None	None	None	2	4	1	0	4	7	1	0	SV Werder Bremen	53.07929619999999	8.807768356000452	None	None	None	None	None	None	None
Ermir Lenjani	Albania	05/08/1989	26	Nantes	FRA	21	175	65	Midfield	3	None	None	None	None	None	None	0	1	3	0	4	3	0	0	FC Nantes	47.218371	-1.5533587199995509	None	None	None	None	None	None	None
Joe Hart	England	19/04/1987	29	Man. City	ENG	62	196	89	Goalkeeper	4	None	None	None	None	None	None	0	0	0	0	None	None	None	None	Manchester City FC	53.4807593	-2.272817876999568	Manchester City FC	20.050	10.285	22.357	17.714	17.714	17.714
Denys Garmash	Ukraine	19/04/1990	26	Dynamo Kyiv	UKR	28	186	72	Midfield	1	None	None	None	None	None	None	0	0	0	0	1	0	0	0	FC Dynamo Kyiv	50.32	30.564428	FC Dynamo Kyiv	7.550	10.900	9.566	18.000	18.000	18.000
Axel Witsel	Belgium	12/01/1989	27	Zenit	RUS	70	186	73	Midfield	4	360	1	0	None	None	None	3	3	3	0	3	8	1	0	FC Zenit	60.00394350000001	30.398305957000446	FC Zenit	19.950	14.950	18.083	18.933	18.933	18.933
Cenk Tosun	Turkey	07/06/1991	25	Beşiktaş	TUR	11	183	78	Forward	2	None	None	None	None	None	None	0	1	0	0	6	1	1	0	Beşiktaş JK	41.04540851900049	29.005740195000442	Beşiktaş JK	11.020	2.040	1.340	12.200	12.200	12.200
Simon Church	Wales	10/12/1988	27	MK Dons	ENG	37	183	84	Forward	1	None	None	None	None	None	None	0	0	0	0	1	0	0	0	Milton Keynes Dons FC	52.009257111000466	-0.7352188199995453	None	None	None	None	None	None	None
Aaron Ramsey	Wales	26/12/1990	25	Arsenal	ENG	42	178	76	Midfield	4	358	1	2	None	None	None	5	1	4	0	5	8	1	0	Arsenal FC	51.5540370060005	-0.105505	Arsenal FC	22.050	21.285	21.357	22.714	22.714	22.714
Rúnar Már Sigurjónsson	Iceland	18/06/1990	26	Sundsvall	SWE	11	178	78	Midfield	0	None	None	None	None	None	None	0	0	0	0	None	None	None	None	GIF Sundsvall	62.39128933100051	17.306927	None	None	None	None	None	None	None
Sam Vokes	Wales	21/10/1989	26	Burnley	ENG	41	186	90	Forward	2	None	None	None	None	None	None	2	4	0	0	1	0	1	0	Burnley FC	53.78874339999999	-2.2328754	None	None	None	None	None	None	None
Sebastian Prödl	Austria	21/06/1987	29	Watford	ENG	58	194	85	Defender	2	None	None	None	None	None	None	0	0	0	0	None	None	None	None	Watford FC	51.656489	-0.39032	None	None	None	None	None	None	None
Milan Škoda	Czech Republic	16/01/1986	30	Slavia Praha	CZE	11	190	86	Forward	2	56	1	0	None	None	None	2	0	0	0	2	0	0	0	SK Slavia Praha	50.069527	14.4781514	None	None	None	None	None	None	None
Lucas Digne	France	20/07/1993	22	Roma	ITA	13	178	74	Defender	0	None	None	None	None	None	None	0	0	0	0	None	None	None	None	AS Roma	41.8971715	12.4728221	AS Roma	3.771	2.883	2.833	15.800	15.800	15.800
Conor McLaughlin	Northern Ireland	26/07/1991	24	Fleetwood	ENG	19	183	71	Defender	1	None	None	None	None	None	None	0	0	0	0	1	0	0	0	Fleetwood Town FC	53.9167458440005	-3.0331064099995615	None	None	None	None	None	None	None
Pylyp Budkivskiy	Ukraine	10/03/1992	24	Zorya	UKR	6	196	81	Forward	0	None	None	None	None	None	None	0	0	0	0	None	None	None	None	FC Zorya Luhansk	50.93433849700051	26.0266362	FC Zorya Luhansk	1.550	1.900	1.566	3.500	3.500	3.500
Koke	Spain	08/01/1992	24	Atlético	ESP	23	178	74	Midfield	1	None	None	None	None	None	None	0	0	0	0	1	1	0	0	Club Atlético de Madrid	40.4206094	-3.721263	Club Atlético de Madrid	34.171	13.542	37.600	26.042	26.042	26.042
Gylfi Sigurdsson	Iceland	08/09/1989	26	Swansea	ENG	41	186	77	Midfield	4	360	1	0	None	None	None	5	1	3	0	5	4	1	0	Swansea City AFC	51.62144	-3.9432271479995507	Swansea City AFC	3.050	3.285	10.357	2.714	2.714	2.714
Jakob Jantscher	Austria	08/01/1989	27	Luzern	SUI	22	181	69	Midfield	1	None	None	None	None	None	None	0	0	0	0	1	0	0	0	FC Luzern	47.05047664200049	8.306346351000457	FC Luzern	1.200	3.175	1.440	1.880	1.880	1.880
Lovre Kalinić	Croatia	03/04/1990	26	Hajduk Split	CRO	4	201	96	Goalkeeper	0	None	None	None	None	None	None	0	0	0	0	None	None	None	None	HNK Hajduk Split	43.52043639100049	16.430298949000473	HNK Hajduk Split	1.750	1.875	1.875	2.875	2.875	2.875
Emanuele Giaccherini	Italy	05/05/1985	31	Bologna	ITA	27	167	60	Midfield	3	270	1	1	None	None	None	2	0	1	0	4	1	0	0	Bologna FC 1909	44.4946457	11.3144803	None	None	None	None	None	None	None
Alan Mannus	Northern Ireland	19/05/1982	34	St Johnstone	SCO	8	188	84	Goalkeeper	0	None	None	None	None	None	None	0	0	0	0	None	None	None	None	St Johnstone FC	56.4074386	-3.4759498	None	None	None	None	None	None	None
Yevhen Konoplyanka	Ukraine	29/09/1989	26	Sevilla	ESP	56	176	69	Midfield	3	None	None	None	None	None	None	2	5	6	0	6	10	1	0	Sevilla FC	37.3890924	-5.976128752999557	Sevilla FC	5.671	3.542	26.600	32.042	32.042	32.042
Costel Pantilimon	Romania	01/02/1987	29	Watford	ENG	21	203	96	Goalkeeper	0	None	None	None	None	None	None	0	0	0	0	None	None	None	None	Watford FC	51.656489	-0.39032	None	None	None	None	None	None	None
Mykyta Shevchenko	Ukraine	26/01/1993	23	Zorya	UKR	0	187	80	Goalkeeper	0	None	None	None	None	None	None	0	0	0	0	None	None	None	None	FC Zorya Luhansk	50.93433849700051	26.0266362	FC Zorya Luhansk	1.550	1.900	1.566	3.500	3.500	3.500
Duje Čop	Croatia	01/02/1990	26	Málaga	ESP	5	184	73	Forward	1	None	None	None	None	None	None	0	0	0	0	None	None	None	None	Málaga CF	36.721261	-4.42033780999958	Málaga CF	4.171	25.542	4.600	4.042	4.042	4.042
Ingvar Jónsson	Iceland	18/10/1989	26	Sandefjord	NOR	5	188	82	Goalkeeper	0	None	None	None	None	None	None	0	0	0	0	None	None	None	None	Sandefjord Fotball	59.1313095	10.21664733500046	None	None	None	None	None	None	None
Michal Kadlec	Czech Republic	13/12/1984	31	Fenerbahçe	TUR	65	185	76	Defender	0	None	None	None	None	None	None	0	0	0	0	None	None	None	None	Fenerbahçe SK	40.97428620000001	29.0430833	Fenerbahçe SK	1.020	24.040	1.340	1.200	1.200	1.200
Dániel Böde	Hungary	24/10/1986	29	Ferencváros	HUN	13	185	77	Forward	2	None	None	None	None	None	None	1	0	0	0	1	0	0	0	Ferencvárosi TC	47.48583551000047	19.0819885	Ferencvárosi TC	0.950	0.600	0.175	0.925	0.925	0.925
Frédéric Veseli	Albania	20/11/1992	23	Lugano	SUI	3	183	80	Defender	1	None	None	None	None	None	None	0	0	0	0	None	None	None	None	FC Lugano	46.0036778	8.951269992000448	None	None	None	None	None	None	None
João Moutinho	Portugal	08/09/1986	29	Monaco	FRA	86	171	61	Midfield	3	None	None	None	None	None	None	1	1	1	0	4	3	0	0	AS Monaco FC	43.73741099999999	7.420815999999999	AS Monaco FC	2.100	2.350	1.700	23.183	23.183	23.183
Denis Zakaria	Switzerland	20/11/1996	19	Young Boys	SUI	2	191	76	Midfield	0	None	None	None	None	None	None	0	0	0	0	None	None	None	None	BSC Young Boys	46.96086	7.46505	BSC Young Boys	2.700	8.675	1.440	9.380	9.380	9.380
Yann Sommer	Switzerland	17/12/1988	27	Mönchengladbach	GER	21	183	79	Goalkeeper	4	None	None	None	None	None	None	0	0	0	0	None	None	None	None	VfL Borussia Mönchengladbach	51.185389219000456	6.4428041	VfL Borussia Mönchengladbach	3.050	12.585	2.942	12.171	12.171	12.171
Romelu Lukaku	Belgium	13/05/1993	23	Everton	ENG	47	190	93	Forward	4	319	2	0	None	None	None	5	5	0	0	6	3	0	0	Everton FC	53.4294901340005	-2.966368	Everton FC	3.050	3.285	3.357	16.714	16.714	16.714
Wayne Rooney	England	24/10/1985	30	Man. United	ENG	114	176	83	Forward	4	290	1	0	None	None	None	4	5	2	0	2	2	0	0	Manchester United FC	53.4630484	-2.2951326	Manchester United FC	16.050	21.285	26.357	2.714	2.714	2.714
Shkodran Mustafi	Germany	17/04/1992	24	Valencia	ESP	11	184	82	Defender	1	90	1	0	None	None	None	1	0	0	0	3	1	0	0	Valencia CF	39.4699075	-0.37738807299956534	Valencia CF	25.171	22.542	26.600	4.042	4.042	4.042
Oscar Lewicki	Sweden	14/07/1992	23	Malmö	SWE	11	171	68	Midfield	2	None	None	None	None	None	None	0	0	0	0	1	0	0	0	Malmö FF	55.60586895500052	13.003822	Malmö FF	2.580	1.025	1.640	6.780	6.780	6.780
Artur Jędrzejczyk	Poland	04/11/1987	28	Legia	POL	21	189	78	Defender	4	None	None	None	None	None	None	0	0	0	0	4	4	1	0	Legia Warszawa	52.22154827300051	21.0424143	Legia Warszawa	8.325	2.000	2.625	10.950	10.950	10.950
Bartosz Salamon	Poland	01/05/1991	25	Cagliari	ITA	8	196	89	Defender	0	None	None	None	None	None	None	0	0	0	0	None	None	None	None	Cagliari Calcio	39.2132322	9.134619352000414	None	None	None	None	None	None	None
Craig Cathcart	Northern Ireland	06/02/1989	27	Watford	ENG	31	188	73	Defender	4	None	None	None	None	None	None	0	1	0	0	4	1	1	0	Watford FC	51.656489	-0.39032	None	None	None	None	None	None	None
Domagoj Vida	Croatia	29/04/1989	27	Dynamo Kyiv	UKR	40	184	73	Defender	3	None	None	None	None	None	None	0	6	0	0	4	4	1	0	FC Dynamo Kyiv	50.32	30.564428	FC Dynamo Kyiv	7.550	10.900	9.566	18.000	18.000	18.000
Sverrir Ingason	Iceland	05/08/1993	22	Lokeren	BEL	6	188	83	Defender	1	None	None	None	None	None	None	0	0	0	0	None	None	None	None	KSC Lokeren OV	51.1036359740005	3.9940663	KSC Lokeren OV	2.020	2.800	1.280	8.920	8.920	8.920
Moussa Sissoko	France	16/08/1989	26	Newcastle	ENG	40	187	83	Midfield	3	None	None	None	None	None	None	0	1	0	0	1	1	0	0	Newcastle United FC	54.9753395	-1.6187730739995914	Newcastle United FC	3.050	18.285	3.357	2.714	2.714	2.714
Naser Aliji	Albania	27/12/1993	22	Basel	SUI	4	177	73	Defender	0	None	None	None	None	None	None	0	0	0	0	None	None	None	None	FC Basel 1893	47.5595986	7.5885761	FC Basel 1893	20.200	17.675	20.440	16.380	16.380	16.380
Bruno Soriano	Spain	12/06/1984	32	Villarreal	ESP	10	184	73	Midfield	2	None	None	None	None	None	None	1	1	0	0	None	None	None	None	Villarreal CF	39.9397706	-0.1005932	Villarreal CF	8.171	3.542	4.600	16.042	16.042	16.042
Marc Janko	Austria	25/06/1983	32	Basel	SUI	55	196	93	Forward	2	None	None	None	None	None	None	0	4	0	0	2	0	1	0	FC Basel 1893	47.5595986	7.5885761	FC Basel 1893	20.200	17.675	20.440	16.380	16.380	16.380
Thomas Meunier	Belgium	12/09/1991	24	Club Brugge	BEL	6	190	78	Defender	3	None	None	None	None	None	None	0	3	0	0	3	1	1	0	Club Brugge KV	51.19510529999999	3.1792763160004256	Club Brugge KV	10.020	4.300	2.280	20.920	20.920	20.920
Josh Magennis	Northern Ireland	15/08/1990	25	Kilmarnock	SCO	21	188	92	Midfield	3	None	None	None	None	None	None	0	0	0	0	2	0	0	0	Kilmarnock FC	55.6089042	-4.49863986199955	None	None	None	None	None	None	None
Shane Ferguson	Northern Ireland	12/07/1991	24	Millwall	ENG	26	176	65	Midfield	1	None	None	None	None	None	None	0	0	0	0	None	None	None	None	Millwall FC	51.49767	-0.020534	None	None	None	None	None	None	None
Gary Cahill	England	19/12/1985	30	Chelsea	ENG	46	193	86	Defender	4	None	None	None	None	None	None	1	3	1	0	2	3	1	0	Chelsea FC	51.480877998000494	-0.18943975099955424	Chelsea FC	33.050	30.285	28.357	23.714	23.714	23.714
Wes Hoolahan	Republic of Ireland	20/05/1982	34	Norwich	ENG	32	168	71	Midfield	4	181	1	1	None	None	None	2	0	0	0	3	5	0	0	Norwich City FC	52.62272549999999	1.2983397260004494	None	None	None	None	None	None	None
Péter Gulácsi	Hungary	06/05/1990	26	Leipzig	GER	3	190	83	Goalkeeper	0	None	None	None	None	None	None	0	0	0	0	None	None	None	None	RB Leipzig	51.3396955	12.3730747	None	None	None	None	None	None	None
Josef Šural	Czech Republic	30/05/1990	26	Sparta Praha	CZE	14	184	81	Midfield	3	None	None	None	None	None	None	0	0	0	0	2	1	1	0	AC Sparta Praha	50.09863665500046	14.413708396000459	AC Sparta Praha	2.550	9.700	2.100	7.775	7.775	7.775
Daniel Sturridge	England	01/09/1989	26	Liverpool	ENG	20	188	76	Forward	3	210	1	0	None	None	None	3	3	4	0	2	1	1	0	Liverpool FC	53.41057676100047	-2.9779368059995477	Liverpool FC	3.050	12.285	3.357	12.714	12.714	12.714
Birkir Sævarsson	Iceland	11/11/1984	31	Hammarby	SWE	59	187	81	Defender	4	None	None	None	None	None	None	0	1	0	0	5	3	1	0	Hammarby IF	60.545951	16.5699828	None	None	None	None	None	None	None
Stephen Quinn	Republic of Ireland	01/04/1986	30	Reading	ENG	15	168	60	Midfield	1	None	None	None	None	None	None	0	0	0	0	None	None	None	None	Reading FC	51.4375166	-0.9158363	None	None	None	None	None	None	None
Federico Bernardeschi	Italy	16/02/1994	22	Fiorentina	ITA	4	183	75	Midfield	1	None	None	None	None	None	None	0	0	0	0	None	None	None	None	ACF Fiorentina	42.96402994300047	10.536040042000423	ACF Fiorentina	2.271	2.883	17.833	23.800	23.800	23.800
John O'Shea	Republic of Ireland	30/04/1981	35	Sunderland	ENG	112	191	75	Defender	3	None	None	None	None	None	None	0	0	0	0	None	None	None	None	Sunderland AFC	54.913871593000465	-1.3857190399995716	None	None	None	None	None	None	None
William Carvalho	Portugal	07/04/1992	24	Sporting CP	POR	21	187	83	Midfield	3	None	None	None	None	None	None	1	0	0	0	6	1	1	0	Sporting Clube de Portugal	38.76196914700046	-9.162147531999608	Sporting Clube de Portugal	22.366	6.350	1.983	11.816	11.816	11.816
Miroslav Stoch	Slovakia	19/10/1989	26	Bursaspor	TUR	55	169	66	Midfield	1	None	None	None	None	None	None	0	0	0	0	None	None	None	None	Bursaspor	40.21297788800047	29.157478066000465	Bursaspor	2.520	3.540	2.340	1.700	1.700	1.700
Lorik Cana	Albania	27/07/1983	32	Nantes	FRA	92	186	77	Midfield	2	None	None	None	None	None	None	1	0	0	0	2	1	2	1	FC Nantes	47.218371	-1.5533587199995509	None	None	None	None	None	None	None
Mario Mandžukić	Croatia	21/05/1986	30	Juventus	ITA	67	190	85	Forward	3	None	None	None	None	None	None	4	3	2	0	4	2	0	0	Torino Juventus	45.1089928	7.638763099999998	Juventus	2.271	25.883	25.833	32.800	32.800	32.800
Shkëlzen Gashi	Albania	15/07/1988	27	Colorado	USA	14	182	75	Forward	1	None	None	None	None	None	None	1	0	0	0	1	0	0	0	Colorado Rapids	39.8056867	-104.8918117	None	None	None	None	None	None	None
César Azpilicueta	Spain	28/08/1989	26	Chelsea	ENG	16	178	75	Defender	1	None	None	None	None	None	None	0	0	0	0	1	0	0	0	Chelsea FC	51.480877998000494	-0.18943975099955424	Chelsea FC	33.050	30.285	28.357	23.714	23.714	23.714
David Vaughan	Wales	18/02/1983	33	Nottm Forest	ENG	42	171	70	Midfield	0	None	None	None	None	None	None	0	0	0	0	None	None	None	None	Nottingham Forest FC	53.0756752	0.033259992000409966	None	None	None	None	None	None	None
Tamás Kádár	Hungary	14/03/1990	26	Lech	POL	31	188	79	Defender	3	None	None	None	None	None	None	0	1	1	0	8	4	2	0	KKS Lech Poznań	52.4031363	16.8659869	KKS Lech Poznań	1.325	1.500	1.625	1.950	1.950	1.950
Roman Shirokov	Russia	06/07/1981	34	CSKA Moskva	RUS	56	183	80	Midfield	3	None	None	None	None	None	None	0	0	0	0	1	1	0	0	PFC CSKA Moskva	57.44911719900051	37.6173	PFC CSKA Moskva	17.950	3.450	8.083	9.933	9.933	9.933
Aleksandar Dragović	Austria	06/03/1991	25	Dynamo Kyiv	UKR	48	184	76	Defender	2	None	None	None	None	None	None	0	1	0	1	4	0	2	1	FC Dynamo Kyiv	50.32	30.564428	FC Dynamo Kyiv	7.550	10.900	9.566	18.000	18.000	18.000
Olexandr Kucher	Ukraine	22/10/1982	33	Shakhtar Donetsk	UKR	51	184	77	Defender	1	None	None	None	None	None	None	0	0	0	0	3	0	1	0	FC Shakhtar Donetsk	47.971263	37.80285	FC Shakhtar Donetsk	9.550	18.900	12.566	19.000	19.000	19.000
Keiren Westwood	Republic of Ireland	23/10/1984	31	Sheff. Wednesday	ENG	17	187	92	Goalkeeper	0	None	None	None	None	None	None	0	0	0	0	None	None	None	None	Sheffield Wednesday FC	53.4158749	-1.5077223	None	None	None	None	None	None	None
Fraser Forster	England	17/03/1988	28	Southampton	ENG	6	201	73	Goalkeeper	0	None	None	None	None	None	None	0	0	0	0	None	None	None	None	Southampton FC	50.909970039000484	-1.4042779489995496	Southampton FC	3.050	3.285	3.357	2.714	2.714	2.714
Balázs Dzsudzsák	Hungary	23/12/1986	29	Bursaspor	TUR	79	179	72	Forward	4	360	2	0	None	None	None	6	2	4	0	1	6	1	0	Bursaspor	40.21297788800047	29.157478066000465	Bursaspor	2.520	3.540	2.340	1.700	1.700	1.700
Dmitri Torbinski	Russia	28/04/1984	32	Krasnodar	RUS	30	172	60	Midfield	0	None	None	None	None	None	None	0	0	0	0	None	None	None	None	FC Krasnodar	45.03926740000001	38.97485574200044	FC Krasnodar	1.950	1.950	2.083	6.933	6.933	6.933
Yaroslav Rakitskiy	Ukraine	03/08/1989	26	Shakhtar Donetsk	UKR	42	180	70	Defender	2	None	None	None	None	None	None	2	0	0	0	2	0	0	0	FC Shakhtar Donetsk	47.971263	37.80285	FC Shakhtar Donetsk	9.550	18.900	12.566	19.000	19.000	19.000
Steliano Filip	Romania	15/05/1994	22	Dinamo Bucureşti	ROU	5	177	73	Defender	1	None	None	None	None	None	None	0	0	0	0	2	0	0	0	FC Dinamo Bucureşti	44.45301913500049	26.1037697	FC Dinamo Bucureşti	2.366	2.860	1.375	1.025	1.025	1.025
André Gomes	Portugal	30/07/1993	22	Valencia	ESP	10	188	84	Midfield	4	None	None	None	None	None	None	2	1	3	0	5	3	0	0	Valencia CF	39.4699075	-0.37738807299956534	Valencia CF	25.171	22.542	26.600	4.042	4.042	4.042
Ross Barkley	England	05/12/1993	22	Everton	ENG	22	189	76	Midfield	0	None	None	None	None	None	None	0	0	0	0	None	None	None	None	Everton FC	53.4294901340005	-2.966368	Everton FC	3.050	3.285	3.357	16.714	16.714	16.714
Anthony Lopes	Portugal	01/10/1990	25	Lyon	FRA	4	184	81	Goalkeeper	0	None	None	None	None	None	None	0	0	0	0	None	None	None	None	Olympique Lyonnais	45.76961580300048	4.9767765	Olympique Lyonnais	19.100	14.350	16.700	3.683	3.683	3.683
Yevhen Seleznyov	Ukraine	20/07/1985	30	Shakhtar Donetsk	UKR	52	188	85	Forward	2	None	None	None	None	None	None	1	1	0	0	2	1	1	0	FC Shakhtar Donetsk	47.971263	37.80285	FC Shakhtar Donetsk	9.550	18.900	12.566	19.000	19.000	19.000
Simone Zaza	Italy	25/06/1991	24	Juventus	ITA	12	186	83	Forward	2	None	None	None	None	None	None	0	1	0	0	9	1	1	0	Torino Juventus	45.1089928	7.638763099999998	Juventus	2.271	25.883	25.833	32.800	32.800	32.800
Sławomir Peszko	Poland	19/02/1985	31	Lechia	POL	39	173	70	Midfield	3	None	None	None	None	None	None	0	0	0	0	3	2	1	0	Lechia Gdańsk	54.3904704	18.6371333	None	None	None	None	None	None	None
Igor Akinfeev	Russia	08/04/1986	30	CSKA Moskva	RUS	89	186	82	Goalkeeper	3	None	None	None	None	None	None	0	0	0	0	None	None	None	None	PFC CSKA Moskva	57.44911719900051	37.6173	PFC CSKA Moskva	17.950	3.450	8.083	9.933	9.933	9.933
Vlad Chiricheş	Romania	14/11/1989	26	Napoli	ITA	44	184	75	Defender	3	None	None	None	None	None	None	0	0	1	0	0	2	1	0	SSC Napoli	40.85405189999999	14.2681244	SSC Napoli	21.271	8.883	18.833	25.800	25.800	25.800
Leonardo Bonucci	Italy	01/05/1987	29	Juventus	ITA	59	190	86	Defender	4	None	None	None	None	None	None	0	0	0	0	5	4	1	0	Torino Juventus	45.1089928	7.638763099999998	Juventus	2.271	25.883	25.833	32.800	32.800	32.800
Simon Mignolet	Belgium	06/08/1988	27	Liverpool	ENG	17	193	87	Goalkeeper	0	None	None	None	None	None	None	0	0	0	0	None	None	None	None	Liverpool FC	53.41057676100047	-2.9779368059995477	Liverpool FC	3.050	12.285	3.357	12.714	12.714	12.714
Nuri Şahin	Turkey	05/09/1988	27	Dortmund	GER	50	179	65	Midfield	1	None	None	None	None	None	None	0	0	0	0	3	0	0	0	Borussia Dortmund	51.51493997500046	7.465996422000444	Borussia Dortmund	10.050	33.585	24.942	21.171	21.171	21.171
Emil Forsberg	Sweden	23/10/1991	24	Leipzig	GER	19	179	78	Midfield	3	None	None	None	None	None	None	0	1	1	0	2	3	0	0	RB Leipzig	51.3396955	12.3730747	None	None	None	None	None	None	None
Ivan Strinić	Croatia	17/07/1987	28	Napoli	ITA	37	186	78	Defender	3	None	None	None	None	None	None	0	1	0	0	3	3	1	0	SSC Napoli	40.85405189999999	14.2681244	SSC Napoli	21.271	8.883	18.833	25.800	25.800	25.800
Ludwig Augustinsson	Sweden	21/04/1994	22	København	DEN	3	181	74	Defender	0	None	None	None	None	None	None	0	0	0	0	None	None	None	None	FC København	55.6760968	12.5683371	FC København	4.620	6.660	7.760	3.580	3.580	3.580
İsmail Köybaşı	Turkey	10/07/1989	26	Beşiktaş	TUR	20	177	75	Defender	1	None	None	None	None	None	None	0	0	0	0	1	1	1	0	Beşiktaş JK	41.04540851900049	29.005740195000442	Beşiktaş JK	11.020	2.040	1.340	12.200	12.200	12.200
Igor Smolnikov	Russia	08/08/1988	27	Zenit	RUS	17	178	70	Defender	3	None	None	None	None	None	None	0	0	1	0	3	4	0	0	FC Zenit	60.00394350000001	30.398305957000446	FC Zenit	19.950	14.950	18.083	18.933	18.933	18.933
Filip Starzyński	Poland	27/05/1991	25	Zagłębie	POL	4	184	72	Midfield	1	None	None	None	None	None	None	0	0	0	0	None	None	None	None	KGHM Zagłębie Lubin	51.41478786300047	16.19621622100044	None	None	None	None	None	None	None
Granit Xhaka	Switzerland	27/09/1992	23	Mönchengladbach	GER	46	185	82	Midfield	4	None	None	None	None	None	None	0	1	3	0	6	5	1	0	VfL Borussia Mönchengladbach	51.185389219000456	6.4428041	VfL Borussia Mönchengladbach	3.050	12.585	2.942	12.171	12.171	12.171
Fedor Smolov	Russia	09/02/1990	26	Krasnodar	RUS	17	187	80	Forward	3	None	None	None	None	None	None	1	5	2	0	2	2	0	0	FC Krasnodar	45.03926740000001	38.97485574200044	FC Krasnodar	1.950	1.950	2.083	6.933	6.933	6.933
Harun Tekin	Turkey	17/06/1989	27	Bursaspor	TUR	0	187	78	Goalkeeper	0	None	None	None	None	None	None	0	0	0	0	None	None	None	None	Bursaspor	40.21297788800047	29.157478066000465	Bursaspor	2.520	3.540	2.340	1.700	1.700	1.700
Jón Dadi Bödvarsson	Iceland	25/05/1992	24	Kaiserslautern	GER	23	190	85	Forward	4	319	1	1	None	None	None	1	3	0	0	4	2	0	0	1. FC Kaiserslautern	49.44299983500048	7.771609302000456	None	None	None	None	None	None	None
Julian Draxler	Germany	20/09/1993	22	Wolfsburg	GER	21	187	72	Midfield	3	221	1	1	None	None	None	2	3	3	0	4	3	0	0	VfL Wolfsburg	52.42451626200051	10.7865461	VfL Wolfsburg	3.050	3.585	2.942	19.171	19.171	19.171
Bernd Leno	Germany	04/03/1992	24	Leverkusen	GER	1	190	83	Goalkeeper	0	None	None	None	None	None	None	0	0	0	0	None	None	None	None	Bayer 04 Leverkusen	51.03319008200049	6.984318665000444	Bayer 04 Leverkusen	19.050	12.585	18.942	21.171	21.171	21.171
Zoltán Stieber	Hungary	16/10/1988	27	Nürnberg	GER	14	175	67	Midfield	3	83	1	0	None	None	None	1	0	0	0	3	1	0	0	1. FC Nürnberg	49.45434000400047	11.07675	None	None	None	None	None	None	None
Andrei Prepeliţă	Romania	08/12/1985	30	Ludogorets	BUL	12	178	79	Midfield	2	None	None	None	None	None	None	0	0	0	0	5	4	1	0	PFC Ludogorets Razgrad	43.8149115	27.1378769	PFC Ludogorets Razgrad	0.300	1.150	15.125	7.850	7.850	7.850
Roman Bürki	Switzerland	14/11/1990	25	Dortmund	GER	5	187	85	Goalkeeper	0	None	None	None	None	None	None	0	0	0	0	None	None	None	None	Borussia Dortmund	51.51493997500046	7.465996422000444	Borussia Dortmund	10.050	33.585	24.942	21.171	21.171	21.171
Mesut Özil	Germany	15/10/1988	27	Arsenal	ENG	76	180	76	Midfield	4	None	None	None	None	None	None	4	6	0	0	3	5	1	0	Arsenal FC	51.5540370060005	-0.105505	Arsenal FC	22.050	21.285	21.357	22.714	22.714	22.714
Emir Kujovic	Sweden	22/06/1988	28	Norrköping	SWE	2	194	87	Forward	0	None	None	None	None	None	None	0	0	0	0	None	None	None	None	IFK Norrköping	58.58882975400047	16.192421	None	None	None	None	None	None	None
Guilherme	Russia	12/12/1985	30	Lokomotiv Moskva	RUS	2	197	78	Goalkeeper	0	None	None	None	None	None	None	0	0	0	0	None	None	None	None	FC Lokomotiv Moskva	55.800076	37.739931	FC Lokomotiv Moskva	11.950	1.950	2.083	3.433	3.433	3.433
Jamie Vardy	England	11/01/1987	29	Leicester	ENG	10	178	76	Forward	3	165	1	0	None	None	None	2	2	0	0	5	3	0	0	Leicester City FC	52.63859826400051	-1.131687637999562	None	None	None	None	None	None	None
Wojciech Szczęsny	Poland	18/04/1990	26	Roma	ITA	27	196	84	Goalkeeper	1	None	None	None	None	None	None	0	0	0	0	None	None	None	None	AS Roma	41.8971715	12.4728221	AS Roma	3.771	2.883	2.833	15.800	15.800	15.800
Emre Mor	Turkey	24/07/1997	18	Nordsjælland	DEN	4	168	63	Forward	2	None	None	None	None	None	None	0	1	1	0	None	None	None	None	FC Nordsjælland	55.81684623300049	12.3511693	FC Nordsjælland	2.120	5.660	2.260	0.580	0.580	0.580
Marco Parolo	Italy	25/01/1985	31	Lazio	ITA	22	184	75	Midfield	3	None	None	None	None	None	None	0	2	1	1	6	4	0	0	SS Lazio	41.92843716100049	12.4851941	SS Lazio	9.271	20.883	12.833	3.800	3.800	3.800
Kyle Walker	England	28/05/1990	26	Tottenham	ENG	18	178	70	Defender	3	None	None	None	None	None	None	0	0	1	0	2	4	0	0	Tottenham Hotspur FC	51.603726097000504	-0.06783299999999999	Tottenham Hotspur FC	10.050	19.285	18.357	11.714	11.714	11.714
Paul Pogba	France	15/03/1993	23	Juventus	ITA	34	191	84	Midfield	4	None	None	None	None	None	None	4	3	3	1	6	4	0	0	Torino Juventus	45.1089928	7.638763099999998	Juventus	2.271	25.883	25.833	32.800	32.800	32.800
Andrea Barzagli	Italy	08/05/1981	35	Juventus	ITA	58	187	87	Defender	4	None	None	None	None	None	None	0	0	0	0	3	3	1	0	Torino Juventus	45.1089928	7.638763099999998	Juventus	2.271	25.883	25.833	32.800	32.800	32.800
Chris Gunter	Wales	21/07/1989	26	Reading	ENG	70	180	71	Defender	4	None	None	None	None	None	None	0	0	0	0	2	7	0	0	Reading FC	51.4375166	-0.9158363	None	None	None	None	None	None	None
Shane Long	Republic of Ireland	22/01/1987	29	Southampton	ENG	65	180	81	Forward	4	None	None	None	None	None	None	0	1	0	0	11	8	2	0	Southampton FC	50.909970039000484	-1.4042779489995496	Southampton FC	3.050	3.285	3.357	2.714	2.714	2.714
Olivier Giroud	France	30/09/1986	29	Arsenal	ENG	51	192	88	Forward	3	240	1	1	None	None	None	2	7	0	1	5	2	1	0	Arsenal FC	51.5540370060005	-0.105505	Arsenal FC	22.050	21.285	21.357	22.714	22.714	22.714
Harry Kane	England	28/07/1993	22	Tottenham	ENG	15	188	65	Forward	4	None	None	None	None	None	None	4	6	4	0	2	5	0	0	Tottenham Hotspur FC	51.603726097000504	-0.06783299999999999	Tottenham Hotspur FC	10.050	19.285	18.357	11.714	11.714	11.714
Sokol Çikalleshi	Albania	27/07/1990	25	İstanbul Başakşehir	TUR	19	185	79	Forward	1	None	None	None	None	None	None	0	0	0	0	None	None	None	None	İstanbul Başakşehir	41.083333	28.816667	İstanbul Başakşehir	1.020	2.040	1.340	1.200	1.200	1.200
Adrien Silva	Portugal	15/03/1989	27	Sporting CP	POR	9	175	69	Midfield	1	None	None	None	None	None	None	0	0	0	0	5	1	0	0	Sporting Clube de Portugal	38.76196914700046	-9.162147531999608	Sporting Clube de Portugal	22.366	6.350	1.983	11.816	11.816	11.816
Ricardo Rodríguez	Switzerland	25/08/1992	23	Wolfsburg	GER	40	181	77	Defender	4	None	None	None	None	None	None	3	1	5	0	4	5	0	0	VfL Wolfsburg	52.42451626200051	10.7865461	VfL Wolfsburg	3.050	3.585	2.942	19.171	19.171	19.171
Kári Árnason	Iceland	13/10/1982	33	Malmö	SWE	49	190	79	Midfield	4	None	None	None	None	None	None	0	2	0	0	3	2	1	0	Malmö FF	55.60586895500052	13.003822	Malmö FF	2.580	1.025	1.640	6.780	6.780	6.780
Sergio Rico	Spain	01/09/1993	22	Sevilla	ESP	1	195	90	Goalkeeper	0	None	None	None	None	None	None	0	0	0	0	None	None	None	None	Sevilla FC	37.3890924	-5.976128752999557	Sevilla FC	5.671	3.542	26.600	32.042	32.042	32.042
Mihai Pintilii	Romania	09/11/1984	31	Steaua	ROU	34	180	78	Midfield	2	None	None	None	None	None	None	0	1	1	0	5	1	0	0	FC Steaua Bucureşti	44.42120380000001	24.3843233	FC Steaua Bucureşti	6.866	13.360	8.375	6.025	6.025	6.025
Ruslan Rotan	Ukraine	29/10/1981	34	Dnipro	UKR	89	174	67	Midfield	1	None	None	None	None	None	None	1	0	0	0	4	0	1	0	FC Dnipro Dnipropetrovsk	48.464717	35.13318629400044	FC Dnipro Dnipropetrovsk	3.050	12.900	11.566	21.000	21.000	21.000
Hjörtur Hermannsson	Iceland	08/02/1995	21	Göteborg	SWE	3	189	81	Defender	0	None	None	None	None	None	None	0	0	0	0	None	None	None	None	IFK Göteborg	57.70887	11.968220093000468	IFK Göteborg	0.580	1.025	1.140	1.780	1.780	1.780
Antonio Candreva	Italy	28/02/1987	29	Lazio	ITA	40	180	70	Midfield	2	None	None	None	None	None	None	2	0	1	0	None	None	None	None	SS Lazio	41.92843716100049	12.4851941	SS Lazio	9.271	20.883	12.833	3.800	3.800	3.800
Ivan Rakitić	Croatia	10/03/1988	28	Barcelona	ESP	78	184	78	Midfield	4	380	1	0	None	None	None	2	6	1	1	7	9	0	0	FC Barcelona	41.3813544	2.1203177860004416	FC Barcelona	34.171	27.542	28.600	38.042	38.042	38.042
Morgan Schneiderlin	France	08/11/1989	26	Man. United	ENG	15	180	75	Midfield	0	None	None	None	None	None	None	0	0	0	0	None	None	None	None	Manchester United FC	53.4630484	-2.2951326	Manchester United FC	16.050	21.285	26.357	2.714	2.714	2.714
Adam Lallana	England	10/05/1988	28	Liverpool	ENG	26	172	73	Midfield	3	None	None	None	None	None	None	2	3	2	0	4	2	0	0	Liverpool FC	53.41057676100047	-2.9779368059995477	Liverpool FC	3.050	12.285	3.357	12.714	12.714	12.714
Burim Kukeli	Albania	16/01/1984	32	Zürich	SUI	17	180	72	Midfield	2	None	None	None	None	None	None	0	0	0	0	4	1	2	0	FC Zürich	47.37706998200048	8.541694	FC Zürich	5.200	1.675	2.440	6.380	6.380	6.380
Theodor Gebre Selassie	Czech Republic	24/12/1986	29	Bremen	GER	37	181	71	Defender	1	None	None	None	None	None	None	0	0	1	0	2	1	0	0	SV Werder Bremen	53.07929619999999	8.807768356000452	None	None	None	None	None	None	None
Christophe Jallet	France	31/10/1983	32	Lyon	FRA	11	178	70	Defender	0	None	None	None	None	None	None	0	0	0	0	None	None	None	None	Olympique Lyonnais	45.76961580300048	4.9767765	Olympique Lyonnais	19.100	14.350	16.700	3.683	3.683	3.683
Laurent Koscielny	France	10/09/1985	30	Arsenal	ENG	32	186	75	Defender	4	None	None	None	None	None	None	0	2	1	0	1	5	1	0	Arsenal FC	51.5540370060005	-0.105505	Arsenal FC	22.050	21.285	21.357	22.714	22.714	22.714
Tomáš Vaclík	Czech Republic	29/03/1989	27	Basel	SUI	6	188	85	Goalkeeper	0	None	None	None	None	None	None	0	0	0	0	None	None	None	None	FC Basel 1893	47.5595986	7.5885761	FC Basel 1893	20.200	17.675	20.440	16.380	16.380	16.380
Marko Rog	Croatia	19/07/1995	20	Dinamo Zagreb	CRO	4	180	73	Midfield	1	None	None	None	None	None	None	0	0	1	0	3	1	1	0	GNK Dinamo Zagreb	45.82139720800046	16.047697900000458	GNK Dinamo Zagreb	4.750	5.875	2.875	5.375	5.375	5.375
Robbie Keane	Republic of Ireland	08/07/1980	35	LA Galaxy	USA	144	175	72	Forward	2	None	None	None	None	None	None	0	0	0	0	None	None	None	None	LA Galaxy	33.862718396000446	-118.2639643	None	None	None	None	None	None	None
Erkan Zengin	Sweden	05/08/1985	30	Trabzonspor	TUR	20	180	72	Midfield	1	None	None	None	None	None	None	0	0	0	0	None	None	None	None	Trabzonspor AŞ	40.90798119999999	39.8281768	Trabzonspor AŞ	11.020	3.540	11.340	8.200	8.200	8.200
Tom Heaton	England	15/04/1986	30	Burnley	ENG	1	188	85	Goalkeeper	0	None	None	None	None	None	None	0	0	0	0	None	None	None	None	Burnley FC	53.78874339999999	-2.2328754	None	None	None	None	None	None	None
Vyacheslav Shevchuk	Ukraine	13/05/1979	37	Shakhtar Donetsk	UKR	55	184	78	Defender	2	None	None	None	None	None	None	0	3	0	0	2	0	0	0	FC Shakhtar Donetsk	47.971263	37.80285	FC Shakhtar Donetsk	9.550	18.900	12.566	19.000	19.000	19.000
Oleg Shatov	Russia	29/07/1990	25	Zenit	RUS	25	173	73	Midfield	2	None	None	None	None	None	None	0	1	1	0	3	3	0	0	FC Zenit	60.00394350000001	30.398305957000446	FC Zenit	19.950	14.950	18.083	18.933	18.933	18.933
Julian Baumgartlinger	Austria	02/01/1988	28	Mainz	GER	47	183	82	Midfield	3	None	None	None	None	None	None	1	1	0	0	3	8	0	0	1. FSV Mainz 05	49.9935994	8.2472526	1. FSV Mainz 05	4.050	3.585	2.942	4.171	4.171	4.171
Bekim Balaj	Albania	11/01/1991	25	Rijeka	CRO	16	188	80	Forward	1	None	None	None	None	None	None	0	0	0	0	2	2	0	0	HNK Rijeka	45.3270631	14.447160033000443	HNK Rijeka	0.750	0.875	4.875	6.375	6.375	6.375
Steve von Bergen	Switzerland	10/06/1983	33	Young Boys	SUI	50	182	79	Defender	0	None	None	None	None	None	None	0	0	0	0	None	None	None	None	BSC Young Boys	46.96086	7.46505	BSC Young Boys	2.700	8.675	1.440	9.380	9.380	9.380
Anthony Martial	France	05/12/1995	20	Man. United	ENG	11	181	76	Forward	2	None	None	None	None	None	None	1	0	2	0	1	1	0	0	Manchester United FC	53.4630484	-2.2951326	Manchester United FC	16.050	21.285	26.357	2.714	2.714	2.714
André Schürrle	Germany	06/11/1990	25	Wolfsburg	GER	55	184	74	Midfield	3	None	None	None	None	None	None	0	1	1	0	None	None	None	None	VfL Wolfsburg	52.42451626200051	10.7865461	VfL Wolfsburg	3.050	3.585	2.942	19.171	19.171	19.171
Pontus Wernbloom	Sweden	25/06/1986	29	CSKA Moskva	RUS	50	187	85	Midfield	0	None	None	None	None	None	None	0	0	0	0	None	None	None	None	PFC CSKA Moskva	57.44911719900051	37.6173	PFC CSKA Moskva	17.950	3.450	8.083	9.933	9.933	9.933
Volkan Babacan	Turkey	11/08/1988	27	İstanbul Başakşehir	TUR	20	192	86	Goalkeeper	3	None	None	None	None	None	None	0	0	0	0	None	None	None	None	İstanbul Başakşehir	41.083333	28.816667	İstanbul Başakşehir	1.020	2.040	1.340	1.200	1.200	1.200
Emil Hallfredsson	Iceland	29/06/1984	31	Udinese	ITA	55	185	83	Midfield	1	None	None	None	None	None	None	0	0	0	0	None	None	None	None	Udinese Calcio	46.08149662800048	13.201389975000438	Udinese Calcio	14.271	5.883	4.333	3.800	3.800	3.800
Krzysztof Mączyński	Poland	23/05/1987	29	Wisła	POL	18	175	66	Midfield	3	None	None	None	None	None	None	0	3	3	0	5	2	1	0	Wisła Kraków	50.43713890000001	23.40691878800044	Wisła Kraków	9.325	0.500	0.625	0.950	0.950	0.950
Martin Škrtel	Slovakia	15/12/1984	31	Liverpool	ENG	84	193	81	Defender	4	None	None	None	None	None	None	0	0	0	0	4	4	2	0	Liverpool FC	53.41057676100047	-2.9779368059995477	Liverpool FC	3.050	12.285	3.357	12.714	12.714	12.714
Mehmet Topal	Turkey	03/03/1986	30	Fenerbahçe	TUR	62	187	82	Midfield	3	None	None	None	None	None	None	0	0	0	0	1	3	0	0	Fenerbahçe SK	40.97428620000001	29.0430833	Fenerbahçe SK	1.020	24.040	1.340	1.200	1.200	1.200
Raheem Sterling	England	08/12/1994	21	Man. City	ENG	25	170	69	Midfield	3	None	None	None	None	None	None	0	1	1	0	4	6	0	0	Manchester City FC	53.4807593	-2.272817876999568	Manchester City FC	20.050	10.285	22.357	17.714	17.714	17.714
Volkan Şen	Turkey	07/07/1987	28	Fenerbahçe	TUR	19	175	68	Midfield	2	None	None	None	None	None	None	0	0	1	0	4	1	1	0	Fenerbahçe SK	40.97428620000001	29.0430833	Fenerbahçe SK	1.020	24.040	1.340	1.200	1.200	1.200
Johan Djourou	Switzerland	18/01/1987	29	Hamburg	GER	63	191	87	Defender	4	None	None	None	None	None	None	1	1	1	0	3	0	1	0	Hamburger SV	53.5884432	9.9044926	None	None	None	None	None	None	None
Jonathan Tah	Germany	11/02/1996	20	Leverkusen	GER	1	-	-	Defender	0	None	None	None	None	None	None	0	0	0	0	None	None	None	None	Bayer 04 Leverkusen	51.03319008200049	6.984318665000444	Bayer 04 Leverkusen	19.050	12.585	18.942	21.171	21.171	21.171
Jon Walters	Republic of Ireland	20/09/1983	32	Stoke	ENG	39	183	79	Forward	2	None	None	None	None	None	None	0	1	0	0	1	2	0	0	Stoke City FC	53.004145827000514	-2.179404	Stoke City FC	11.050	3.285	3.357	2.714	2.714	2.714
Haris Seferović	Switzerland	22/02/1992	24	Frankfurt	GER	33	185	85	Forward	4	None	None	None	None	None	None	5	3	1	1	2	2	0	0	Eintracht Frankfurt	50.115519157000506	8.684168824000437	Eintracht Frankfurt	3.050	3.585	14.942	3.171	3.171	3.171
Onur Kıvrak	Turkey	01/01/1988	28	Trabzonspor	TUR	12	187	74	Goalkeeper	0	None	None	None	None	None	None	0	0	0	0	None	None	None	None	Trabzonspor AŞ	40.90798119999999	39.8281768	Trabzonspor AŞ	11.020	3.540	11.340	8.200	8.200	8.200
Lukas Hinterseer	Austria	28/03/1991	25	Ingolstadt	GER	11	192	84	Forward	1	None	None	None	None	None	None	0	0	0	0	None	None	None	None	FC Ingolstadt 04	48.76507649300049	11.4257541	None	None	None	None	None	None	None
Kim Källström	Sweden	24/08/1982	33	Grasshoppers	SUI	130	185	87	Midfield	3	None	None	None	None	None	None	0	0	0	0	3	1	0	0	Grasshopper Club Zürich	47.3768866	8.541694	Grasshopper Club Zürich	1.200	1.675	2.940	2.880	2.880	2.880
Radja Nainggolan	Belgium	04/05/1988	28	Roma	ITA	21	176	65	Midfield	4	275	1	1	None	None	None	2	3	3	0	4	3	0	0	AS Roma	41.8971715	12.4728221	AS Roma	3.771	2.883	2.833	15.800	15.800	15.800
Chris Smalling	England	22/11/1989	26	Man. United	ENG	28	192	81	Defender	4	None	None	None	None	None	None	1	2	0	0	3	3	0	0	Manchester United FC	53.4630484	-2.2951326	Manchester United FC	16.050	21.285	26.357	2.714	2.714	2.714
Ansi Agolli	Albania	11/10/1982	33	Qarabağ	AZE	64	179	70	Defender	3	None	None	None	None	None	None	0	0	0	0	3	2	0	0	Qarabağ FK	39.69999640800046	48.67284	Qarabağ FK	1.275	0.600	2.000	5.725	5.725	5.725
Christian Fuchs	Austria	07/04/1986	30	Leicester	ENG	77	186	80	Defender	3	None	None	None	None	None	None	0	1	2	0	4	1	1	0	Leicester City FC	52.63859826400051	-1.131687637999562	None	None	None	None	None	None	None
Yuri Lodygin	Russia	26/05/1990	26	Zenit	RUS	11	187	82	Goalkeeper	0	None	None	None	None	None	None	0	0	0	0	None	None	None	None	FC Zenit	60.00394350000001	30.398305957000446	FC Zenit	19.950	14.950	18.083	18.933	18.933	18.933
Bastian Schweinsteiger	Germany	01/08/1984	31	Man. United	ENG	117	183	79	Midfield	3	36	1	0	None	None	None	1	0	0	0	1	1	0	0	Manchester United FC	53.4630484	-2.2951326	Manchester United FC	16.050	21.285	26.357	2.714	2.714	2.714
Raphael Guerreiro	Portugal	22/12/1993	22	Lorient	FRA	9	170	67	Defender	3	None	None	None	None	None	None	1	0	0	0	2	3	0	0	FC Lorient	47.75016993300051	-3.3666663109995625	None	None	None	None	None	None	None
Ádám Nagy	Hungary	17/06/1995	21	Ferencváros	HUN	10	178	74	Midfield	3	None	None	None	None	None	None	0	1	0	0	2	2	1	0	Ferencvárosi TC	47.48583551000047	19.0819885	Ferencvárosi TC	0.950	0.600	0.175	0.925	0.925	0.925
Ondrej Duda	Slovakia	05/12/1994	21	Legia	POL	14	181	74	Midfield	3	154	1	0	None	None	None	1	1	0	0	2	3	0	0	Legia Warszawa	52.22154827300051	21.0424143	Legia Warszawa	8.325	2.000	2.625	10.950	10.950	10.950
Odise Roshi	Albania	22/05/1991	25	Rijeka	CRO	34	187	78	Midfield	3	None	None	None	None	None	None	0	0	0	0	None	None	None	None	HNK Rijeka	45.3270631	14.447160033000443	HNK Rijeka	0.750	0.875	4.875	6.375	6.375	6.375
Georgi Schennikov	Russia	27/04/1991	25	CSKA Moskva	RUS	10	180	75	Defender	2	None	None	None	None	None	None	0	0	0	0	2	0	1	0	PFC CSKA Moskva	57.44911719900051	37.6173	PFC CSKA Moskva	17.950	3.450	8.083	9.933	9.933	9.933
Christian Benteke	Belgium	03/12/1990	25	Liverpool	ENG	28	190	83	Forward	2	None	None	None	None	None	None	1	0	0	0	None	None	None	None	Liverpool FC	53.41057676100047	-2.9779368059995477	Liverpool FC	3.050	12.285	3.357	12.714	12.714	12.714
Ciro Immobile	Italy	20/02/1990	26	Torino	ITA	14	185	78	Forward	2	None	None	None	None	None	None	1	1	0	0	4	2	0	0	Torino FC	45.07048584300048	7.686856499999999	Torino FC	2.271	2.883	2.833	16.800	16.800	16.800
Taras Stepanenko	Ukraine	08/08/1989	26	Shakhtar Donetsk	UKR	32	181	75	Midfield	3	None	None	None	None	None	None	0	1	1	0	5	2	0	0	FC Shakhtar Donetsk	47.971263	37.80285	FC Shakhtar Donetsk	9.550	18.900	12.566	19.000	19.000	19.000
Burak Yılmaz	Turkey	15/07/1985	30	Beijing Guoan	CHN	47	188	77	Forward	3	205	1	0	None	None	None	1	1	0	0	6	4	1	0	Beijing Guoan FC	39.9815606	116.407395	None	None	None	None	None	None	None
David Cotterill	Wales	04/12/1987	28	Birmingham	ENG	23	175	71	Forward	0	None	None	None	None	None	None	0	0	0	0	None	None	None	None	Birmingham City FC	52.48624299999999	-1.890401	Birmingham City FC	10.050	3.285	3.357	2.714	2.714	2.714
Viktor Pečovský	Slovakia	24/05/1983	33	Žilina	SVK	34	171	74	Midfield	2	None	None	None	None	None	None	0	1	0	0	3	0	1	0	MŠK Žilina	49.22380996700048	18.7408001	MŠK Žilina	0.975	1.300	1.325	0.550	0.550	0.550
Dimitri Payet	France	29/03/1987	29	West Ham	ENG	22	175	77	Midfield	4	297	2	1	None	None	None	4	5	5	1	1	3	0	0	West Ham United FC	51.57045970000001	0.14751	West Ham United FC	3.050	3.285	3.357	2.714	2.714	2.714
Robert Lewandowski	Poland	21/08/1988	27	Bayern	GER	79	184	78	Forward	4	None	None	None	None	None	None	2	3	3	0	4	16	0	0	FC Bayern München	48.1326687	11.499996453000449	FC Bayern München	33.050	36.585	29.942	31.171	31.171	31.171
Mariusz Stępiński	Poland	12/05/1995	21	Ruch	POL	2	183	73	Forward	0	None	None	None	None	None	None	0	0	0	0	None	None	None	None	Ruch Chorzów	50.29403631600047	18.948666974000446	Ruch Chorzów	1.325	1.500	0.625	2.450	2.450	2.450
Milan Badelj	Croatia	25/02/1989	27	Fiorentina	ITA	23	186	76	Midfield	4	None	None	None	None	None	None	1	3	0	0	4	7	1	0	ACF Fiorentina	42.96402994300047	10.536040042000423	ACF Fiorentina	2.271	2.883	17.833	23.800	23.800	23.800
David Alaba	Austria	24/06/1992	23	Bayern	GER	48	180	75	Midfield	3	None	None	None	None	None	None	2	1	6	1	None	None	None	None	FC Bayern München	48.1326687	11.499996453000449	FC Bayern München	33.050	36.585	29.942	31.171	31.171	31.171
Juraj Kucka	Slovakia	26/02/1987	29	Milan	ITA	50	186	86	Midfield	4	None	None	None	None	None	None	3	2	0	0	11	12	2	0	AC Milan	45.4654219	9.189509981000413	AC Milan	22.271	19.883	18.833	3.800	3.800	3.800
Marc-André ter Stegen	Germany	30/04/1992	24	Barcelona	ESP	6	187	85	Goalkeeper	0	None	None	None	None	None	None	0	0	0	0	None	None	None	None	FC Barcelona	41.3813544	2.1203177860004416	FC Barcelona	34.171	27.542	28.600	38.042	38.042	38.042
Adam Nemec	Slovakia	02/09/1985	30	Willem II	NED	24	190	84	Forward	2	None	None	None	None	None	None	0	1	0	1	1	1	0	0	Willem II Tilburg	51.5419023	5.086638199999999	None	None	None	None	None	None	None
